[
  {
    "nameAr": "طهران",
    "nameEn": "Tehran",
    "type": "city",
    "lat": 35.6892,
    "lng": 51.3890
  },
  {
    "nameAr": "مشهد",
    "nameEn": "Mashhad",
    "type": "city",
    "lat": 36.2605,
    "lng": 59.6168
  },
  {
    "nameAr": "أصفهان",
    "nameEn": "Isfahan",
    "type": "city",
    "lat": 32.6539,
    "lng": 51.6660
  },
  {
    "nameAr": "شيراز",
    "nameEn": "Shiraz",
    "type": "city",
    "lat": 29.5918,
    "lng": 52.5837
  },
  {
    "nameAr": "تبريز",
    "nameEn": "Tabriz",
    "type": "city",
    "lat": 38.0802,
    "lng": 46.2919
  },
  {
    "nameAr": "قم",
    "nameEn": "Qom",
    "type": "city",
    "lat": 34.6401,
    "lng": 50.8764
  },
  {
    "nameAr": "الأهواز",
    "nameEn": "Ahvaz",
    "type": "city",
    "lat": 31.3183,
    "lng": 48.6706
  },
  {
    "nameAr": "كرمانشاه",
    "nameEn": "Kermanshah",
    "type": "city",
    "lat": 34.3277,
    "lng": 47.0778
  }
]
