[
  {
    "nameAr": "لندن",
    "nameEn": "London",
    "type": "city",
    "lat": 51.5074,
    "lng": -0.1278
  },
  {
    "nameAr": "برمنغهام",
    "nameEn": "Birmingham",
    "type": "city",
    "lat": 52.48,
    "lng": -1.9025,
    "pop": 1137100
  },
  {
    "nameAr": "غلاسكو",
    "nameEn": "Glasgow",
    "type": "city",
    "lat": 55.861111111111,
    "lng": -4.25,
    "pop": 626410
  },
  {
    "nameAr": "مانشستر",
    "nameEn": "Manchester",
    "type": "city",
    "lat": 53.466666666667,
    "lng": -2.2333333333333,
    "pop": 547627
  },
  {
    "nameAr": "ليدز",
    "nameEn": "Leeds",
    "type": "city",
    "lat": 53.7975,
    "lng": -1.5436111111111,
    "pop": 536280
  },
  {
    "nameAr": "شفيلد",
    "nameEn": "Sheffield",
    "type": "city",
    "lat": 53.380833333333,
    "lng": -1.4702777777778,
    "pop": 518090
  },
  {
    "nameAr": "ليفربول",
    "nameEn": "Liverpool",
    "type": "city",
    "lat": 53.407222222222,
    "lng": -2.9916666666667,
    "pop": 513441
  },
  {
    "nameAr": "إدنبرة",
    "nameEn": "Edinburgh",
    "type": "city",
    "lat": 55.953333333333,
    "lng": -3.1891666666667,
    "pop": 488050
  },
  {
    "nameAr": "برستل",
    "nameEn": "Bristol",
    "type": "city",
    "lat": 51.453611111111,
    "lng": -2.5975,
    "pop": 472465
  },
  {
    "nameAr": "كارديف",
    "nameEn": "Cardiff",
    "type": "city",
    "lat": 51.481666666667,
    "lng": -3.1791666666667,
    "pop": 383536
  },
  {
    "nameAr": "ليستر",
    "nameEn": "Leicester",
    "type": "city",
    "lat": 52.636111111111,
    "lng": -1.1330555555556,
    "pop": 368600
  },
  {
    "nameAr": "كوفنتري",
    "nameEn": "Coventry",
    "type": "city",
    "lat": 52.416666666667,
    "lng": -1.5166666666667,
    "pop": 362690
  },
  {
    "nameAr": "بلفاست",
    "nameEn": "Belfast",
    "type": "city",
    "lat": 54.596666666667,
    "lng": -5.93,
    "pop": 345006
  },
  {
    "nameAr": "نيوكاسل أبون تاين",
    "nameEn": "Newcastle upon Tyne",
    "type": "city",
    "lat": 54.977777777778,
    "lng": -1.6133333333333,
    "pop": 300196
  },
  {
    "nameAr": "برادفورد",
    "nameEn": "Bradford",
    "type": "city",
    "lat": 53.794,
    "lng": -1.751,
    "pop": 293277
  },
  {
    "nameAr": "نوتنغهام",
    "nameEn": "Nottingham",
    "type": "city",
    "lat": 52.955,
    "lng": -1.1491666666667,
    "pop": 289301
  },
  {
    "nameAr": "سندرلاند",
    "nameEn": "Sunderland",
    "type": "city",
    "lat": 54.9,
    "lng": -1.3802777777778,
    "pop": 277417
  },
  {
    "nameAr": "برايتون أند هوف",
    "nameEn": "Brighton and Hove",
    "type": "city",
    "lat": 50.827777777778,
    "lng": -0.15277777777778,
    "pop": 277103
  },
  {
    "nameAr": "ساوثهامبتون",
    "nameEn": "Southampton",
    "type": "city",
    "lat": 50.906666666667,
    "lng": -1.4044444444444,
    "pop": 271173
  },
  {
    "nameAr": "بليموث",
    "nameEn": "Plymouth",
    "type": "city",
    "lat": 50.371388888889,
    "lng": -4.1422222222222,
    "pop": 267918
  },
  {
    "nameAr": "ميلتون كينز",
    "nameEn": "Milton Keynes",
    "type": "city",
    "lat": 52.033333333333,
    "lng": -0.76666666666667,
    "pop": 264349
  },
  {
    "nameAr": "كينغستون أبون هال",
    "nameEn": "Kingston upon Hull",
    "type": "city",
    "lat": 53.744444444444,
    "lng": -0.3325,
    "pop": 260200
  },
  {
    "nameAr": "ستوك أون ترينت",
    "nameEn": "Stoke-on-Trent",
    "type": "city",
    "lat": 53,
    "lng": -2.1833333333333,
    "pop": 258300
  },
  {
    "nameAr": "ديربي",
    "nameEn": "Derby",
    "type": "city",
    "lat": 52.921666666667,
    "lng": -1.4766666666667,
    "pop": 255394
  },
  {
    "nameAr": "ولفرهامبتن",
    "nameEn": "Wolverhampton",
    "type": "city",
    "lat": 52.584166666667,
    "lng": -2.1252777777778,
    "pop": 250970
  },
  {
    "nameAr": "بورتسموث",
    "nameEn": "Portsmouth",
    "type": "city",
    "lat": 50.805833333333,
    "lng": -1.0872222222222,
    "pop": 248440
  },
  {
    "nameAr": "سونزي",
    "nameEn": "Swansea",
    "type": "city",
    "lat": 51.616666666667,
    "lng": -3.95,
    "pop": 246700
  },
  {
    "nameAr": "مدينة وستمنستر",
    "nameEn": "City of Westminster",
    "type": "city",
    "lat": 51.4975,
    "lng": -0.13722222222222,
    "pop": 211365
  },
  {
    "nameAr": "يورك",
    "nameEn": "York",
    "type": "city",
    "lat": 53.95,
    "lng": -1.0833333333333,
    "pop": 208400
  },
  {
    "nameAr": "أبردين",
    "nameEn": "Aberdeen",
    "type": "city",
    "lat": 57.15,
    "lng": -2.1,
    "pop": 200680
  },
  {
    "nameAr": "نورتش",
    "nameEn": "Norwich",
    "type": "city",
    "lat": 52.628611111111,
    "lng": 1.2927777777778,
    "pop": 195971
  },
  {
    "nameAr": "بيتربرة",
    "nameEn": "Peterborough",
    "type": "city",
    "lat": 52.5725,
    "lng": -0.24305555555556,
    "pop": 194000
  },
  {
    "nameAr": "ساوثند أون سي",
    "nameEn": "Southend-on-Sea",
    "type": "city",
    "lat": 51.53789,
    "lng": 0.71377,
    "pop": 160257
  },
  {
    "nameAr": "نيوبورت",
    "nameEn": "Newport",
    "type": "city",
    "lat": 51.588611111111,
    "lng": -2.9977777777778,
    "pop": 159600
  },
  {
    "nameAr": "دندي",
    "nameEn": "Dundee",
    "type": "city",
    "lat": 56.460555555556,
    "lng": -2.97,
    "pop": 148280
  },
  {
    "nameAr": "أكسفورد",
    "nameEn": "Oxford",
    "type": "city",
    "lat": 51.751944444444,
    "lng": -1.2577777777778,
    "pop": 147500
  },
  {
    "nameAr": "غلوستر",
    "nameEn": "Gloucester",
    "type": "city",
    "lat": 51.865277777778,
    "lng": -2.2458333333333,
    "pop": 145563
  },
  {
    "nameAr": "برسطن",
    "nameEn": "Preston",
    "type": "city",
    "lat": 53.759444444444,
    "lng": -2.6980555555556,
    "pop": 141801
  },
  {
    "nameAr": "إكستر",
    "nameEn": "Exeter",
    "type": "city",
    "lat": 50.725555555556,
    "lng": -3.5269444444444,
    "pop": 124180
  },
  {
    "nameAr": "كامبريدج",
    "nameEn": "Cambridge",
    "type": "city",
    "lat": 52.208055555556,
    "lng": 0.1225,
    "pop": 123867
  },
  {
    "nameAr": "كولشيستر",
    "nameEn": "Colchester",
    "type": "city",
    "lat": 51.888611,
    "lng": 0.903611,
    "pop": 121859
  },
  {
    "nameAr": "تشيلمسفورد",
    "nameEn": "Chelmsford",
    "type": "city",
    "lat": 51.7361,
    "lng": 0.4798,
    "pop": 115369
  },
  {
    "nameAr": "دونكاستر",
    "nameEn": "Doncaster",
    "type": "city",
    "lat": 53.522777777778,
    "lng": -1.1325,
    "pop": 109805
  },
  {
    "nameAr": "سالفورد",
    "nameEn": "Salford",
    "type": "city",
    "lat": 53.482777777778,
    "lng": -2.2930555555556,
    "pop": 103886
  },
  {
    "nameAr": "ورسستر",
    "nameEn": "Worcester",
    "type": "city",
    "lat": 52.191111111111,
    "lng": -2.2205555555556,
    "pop": 101891
  },
  {
    "nameAr": "ويكفيلد",
    "nameEn": "Wakefield",
    "type": "city",
    "lat": 53.6825,
    "lng": -1.4975,
    "pop": 99251
  },
  {
    "nameAr": "لينكن",
    "nameEn": "Lincoln",
    "type": "city",
    "lat": 53.25,
    "lng": -0.55,
    "pop": 97541
  },
  {
    "nameAr": "باث",
    "nameEn": "Bath",
    "type": "city",
    "lat": 51.381388888889,
    "lng": -2.3597222222222,
    "pop": 94092
  },
  {
    "nameAr": "تشستر",
    "nameEn": "Chester",
    "type": "city",
    "lat": 53.2,
    "lng": -2.8833333333333,
    "pop": 87507
  },
  {
    "nameAr": "ديري",
    "nameEn": "Derry",
    "type": "city",
    "lat": 54.991666666667,
    "lng": -7.3416666666667,
    "pop": 85016
  },
  {
    "nameAr": "سانت ألبانز",
    "nameEn": "St Albans",
    "type": "city",
    "lat": 51.755,
    "lng": -0.336,
    "pop": 82146
  },
  {
    "nameAr": "كارلايل، كمبريا",
    "nameEn": "Carlisle",
    "type": "city",
    "lat": 54.894722222222,
    "lng": -2.9363888888889,
    "pop": 75399
  },
  {
    "nameAr": "ليسبورن",
    "nameEn": "Lisburn",
    "type": "city",
    "lat": 54.516666666667,
    "lng": -6.0333333333333,
    "pop": 71465
  },
  {
    "nameAr": "هيرفورد",
    "nameEn": "Hereford",
    "type": "city",
    "lat": 52.056388888889,
    "lng": -2.7161111111111,
    "pop": 63024
  },
  {
    "nameAr": "ورکسام",
    "nameEn": "Wrexham",
    "type": "city",
    "lat": 53.046666666667,
    "lng": -2.9936111111111,
    "pop": 61603
  },
  {
    "nameAr": "Bangor",
    "nameEn": "Bangor",
    "type": "city",
    "lat": 54.66,
    "lng": -5.67,
    "pop": 61011
  },
  {
    "nameAr": "كانتربيري",
    "nameEn": "Canterbury",
    "type": "city",
    "lat": 51.278333333333,
    "lng": 1.0775,
    "pop": 54880
  },
  {
    "nameAr": "دنفيرملين",
    "nameEn": "Dunfermline",
    "type": "city",
    "lat": 56.071388888889,
    "lng": -3.4616666666667,
    "pop": 53100
  },
  {
    "nameAr": "لانكاستر، لانكشاير",
    "nameEn": "Lancaster",
    "type": "city",
    "lat": 54.048888888889,
    "lng": -2.8013888888889,
    "pop": 52660
  },
  {
    "nameAr": "درم",
    "nameEn": "Durham",
    "type": "city",
    "lat": 54.783333333333,
    "lng": -1.5666666666667,
    "pop": 48069
  },
  {
    "nameAr": "برث",
    "nameEn": "Perth",
    "type": "city",
    "lat": 56.395833333333,
    "lng": -3.4333333333333,
    "pop": 47430
  },
  {
    "nameAr": "إنفرنيس",
    "nameEn": "Inverness",
    "type": "city",
    "lat": 57.483888888889,
    "lng": -4.2258333333333,
    "pop": 47380
  },
  {
    "nameAr": "ساليسبري",
    "nameEn": "Salisbury",
    "type": "city",
    "lat": 51.074,
    "lng": -1.7936,
    "pop": 45477
  },
  {
    "nameAr": "إستيرلينغ",
    "nameEn": "Stirling",
    "type": "city",
    "lat": 56.1166,
    "lng": -3.9369,
    "pop": 37910
  },
  {
    "nameAr": "ونشستر",
    "nameEn": "Winchester",
    "type": "city",
    "lat": 51.063333333333,
    "lng": -1.3086111111111,
    "pop": 35200
  },
  {
    "nameAr": "جبل طارق",
    "nameEn": "Gibraltar",
    "type": "city",
    "lat": 36.14,
    "lng": -5.35,
    "pop": 34003
  },
  {
    "nameAr": "ليشفيلد",
    "nameEn": "Lichfield",
    "type": "city",
    "lat": 52.6835,
    "lng": -1.82653,
    "pop": 33816
  },
  {
    "nameAr": "تشيتشستر",
    "nameEn": "Chichester",
    "type": "city",
    "lat": 50.8365,
    "lng": -0.7792,
    "pop": 30925
  },
  {
    "nameAr": "نيوري",
    "nameEn": "Newry",
    "type": "city",
    "lat": 54.175555555556,
    "lng": -6.3491666666667,
    "pop": 27913
  },
  {
    "nameAr": "ترورو",
    "nameEn": "Truro",
    "type": "city",
    "lat": 50.26,
    "lng": -5.051,
    "pop": 21555
  },
  {
    "nameAr": "Darton",
    "nameEn": "Darton",
    "type": "city",
    "lat": 53.585,
    "lng": -1.5325,
    "pop": 21345
  },
  {
    "nameAr": "غريت لينفرد",
    "nameEn": "Great Linford",
    "type": "city",
    "lat": 52.06256,
    "lng": -0.74575,
    "pop": 20719
  },
  {
    "nameAr": "إيلي",
    "nameEn": "Ely",
    "type": "city",
    "lat": 52.398055555556,
    "lng": 0.26222222222222,
    "pop": 20256
  },
  {
    "nameAr": "Hazel Grove",
    "nameEn": "Hazel Grove",
    "type": "city",
    "lat": 53.3754,
    "lng": -2.1119,
    "pop": 20170
  },
  {
    "nameAr": "ستوك غيفورد",
    "nameEn": "Stoke Gifford",
    "type": "city",
    "lat": 51.517,
    "lng": -2.548,
    "pop": 19781
  },
  {
    "nameAr": "ريبون",
    "nameEn": "Ripon",
    "type": "city",
    "lat": 54.138055555556,
    "lng": -1.5236111111111,
    "pop": 16702
  },
  {
    "nameAr": "بانجور",
    "nameEn": "Bangor",
    "type": "city",
    "lat": 53.228,
    "lng": -4.128,
    "pop": 16358
  },
  {
    "nameAr": "Queensbury",
    "nameEn": "Queensbury",
    "type": "city",
    "lat": 53.7683,
    "lng": -1.84528,
    "pop": 16273
  },
  {
    "nameAr": "وينكفيلد",
    "nameEn": "Winkfield",
    "type": "city",
    "lat": 51.4318,
    "lng": -0.70961944444444,
    "pop": 15271
  },
  {
    "nameAr": "Aston cum Aughton",
    "nameEn": "Aston cum Aughton",
    "type": "city",
    "lat": 53.36,
    "lng": -1.32,
    "pop": 15228
  },
  {
    "nameAr": "أرماه",
    "nameEn": "Armagh",
    "type": "city",
    "lat": 54.349444,
    "lng": -6.654444,
    "pop": 14777
  },
  {
    "nameAr": "Whitehill",
    "nameEn": "Whitehill",
    "type": "city",
    "lat": 51.101811111111,
    "lng": -0.86908055555556,
    "pop": 14741
  },
  {
    "nameAr": "Hangleton",
    "nameEn": "Hangleton",
    "type": "city",
    "lat": 50.85,
    "lng": -0.2,
    "pop": 14720
  },
  {
    "nameAr": "Farnborough",
    "nameEn": "Farnborough",
    "type": "city",
    "lat": 51.3591,
    "lng": 0.0741,
    "pop": 14632
  },
  {
    "nameAr": "Chelsfield",
    "nameEn": "Chelsfield",
    "type": "city",
    "lat": 51.3582,
    "lng": 0.1278,
    "pop": 14507
  },
  {
    "nameAr": "Birstall",
    "nameEn": "Birstall",
    "type": "city",
    "lat": 52.673638888889,
    "lng": -1.12,
    "pop": 14143
  },
  {
    "nameAr": "Shepway",
    "nameEn": "Shepway",
    "type": "city",
    "lat": 51.2543,
    "lng": 0.54611,
    "pop": 14100
  },
  {
    "nameAr": "Croxley Green",
    "nameEn": "Croxley Green",
    "type": "city",
    "lat": 51.647,
    "lng": -0.445,
    "pop": 13533
  },
  {
    "nameAr": "Walsall Wood",
    "nameEn": "Walsall Wood",
    "type": "city",
    "lat": 52.627661111111,
    "lng": -1.9301,
    "pop": 13207
  },
  {
    "nameAr": "Batchworth",
    "nameEn": "Batchworth",
    "type": "city",
    "lat": 51.63,
    "lng": -0.46,
    "pop": 12374
  },
  {
    "nameAr": "Knowsley",
    "nameEn": "Knowsley",
    "type": "city",
    "lat": 53.4498,
    "lng": -2.8501,
    "pop": 11773
  },
  {
    "nameAr": "Aylesford",
    "nameEn": "Aylesford",
    "type": "city",
    "lat": 51.3033,
    "lng": 0.4796,
    "pop": 11671
  },
  {
    "nameAr": "Hoo St Werburgh",
    "nameEn": "Hoo St Werburgh",
    "type": "city",
    "lat": 51.423,
    "lng": 0.558,
    "pop": 11364
  },
  {
    "nameAr": "ولز",
    "nameEn": "Wells",
    "type": "city",
    "lat": 51.209444444444,
    "lng": -2.645,
    "pop": 11145
  },
  {
    "nameAr": "Royston",
    "nameEn": "Royston",
    "type": "city",
    "lat": 53.61,
    "lng": -1.45,
    "pop": 10728
  },
  {
    "nameAr": "Darfield",
    "nameEn": "Darfield",
    "type": "city",
    "lat": 53.535,
    "lng": -1.3757,
    "pop": 10685
  },
  {
    "nameAr": "ابلتون تورن",
    "nameEn": "Appleton Thorn",
    "type": "city",
    "lat": 53.3508,
    "lng": -2.5441,
    "pop": 10477
  },
  {
    "nameAr": "Eaglescliffe",
    "nameEn": "Eaglescliffe",
    "type": "city",
    "lat": 54.52,
    "lng": -1.35,
    "pop": 10449
  },
  {
    "nameAr": "Taverham",
    "nameEn": "Taverham",
    "type": "city",
    "lat": 52.68,
    "lng": 1.2,
    "pop": 10233
  },
  {
    "nameAr": "South Normanton",
    "nameEn": "South Normanton",
    "type": "city",
    "lat": 53.107,
    "lng": -1.343,
    "pop": 10140
  },
  {
    "nameAr": "Radlett",
    "nameEn": "Radlett",
    "type": "city",
    "lat": 51.684166666667,
    "lng": -0.3175,
    "pop": 10060
  },
  {
    "nameAr": "Upton",
    "nameEn": "Upton",
    "type": "city",
    "lat": 52.235158333333,
    "lng": -0.95190555555556,
    "pop": 10028
  },
  {
    "nameAr": "Aldenham",
    "nameEn": "Aldenham",
    "type": "city",
    "lat": 51.6723,
    "lng": -0.3546,
    "pop": 9942
  },
  {
    "nameAr": "Crigglestone",
    "nameEn": "Crigglestone",
    "type": "city",
    "lat": 53.644002777778,
    "lng": -1.5225861111111,
    "pop": 9913
  },
  {
    "nameAr": "Greasby",
    "nameEn": "Greasby",
    "type": "city",
    "lat": 53.373,
    "lng": -3.1233,
    "pop": 9830
  },
  {
    "nameAr": "Cobham",
    "nameEn": "Cobham",
    "type": "city",
    "lat": 51.3289,
    "lng": -0.4094,
    "pop": 9739
  },
  {
    "nameAr": "Boxley",
    "nameEn": "Boxley",
    "type": "city",
    "lat": 51.302,
    "lng": 0.543,
    "pop": 9616
  },
  {
    "nameAr": "يكسلي",
    "nameEn": "Yaxley",
    "type": "city",
    "lat": 52.52,
    "lng": -0.26,
    "pop": 9409
  },
  {
    "nameAr": "Rhosllanerchrugog",
    "nameEn": "Rhosllanerchrugog",
    "type": "city",
    "lat": 53.01115,
    "lng": -3.0522111111111,
    "pop": 9380
  },
  {
    "nameAr": "تشري هينتون",
    "nameEn": "Cherry Hinton",
    "type": "city",
    "lat": 52.1849,
    "lng": 0.176,
    "pop": 9343
  },
  {
    "nameAr": "Shortlands",
    "nameEn": "Shortlands",
    "type": "city",
    "lat": 51.3983,
    "lng": 0.0039,
    "pop": 9303
  },
  {
    "nameAr": "Brockworth",
    "nameEn": "Brockworth",
    "type": "city",
    "lat": 51.85,
    "lng": -2.15,
    "pop": 9205
  },
  {
    "nameAr": "Purbrook",
    "nameEn": "Purbrook",
    "type": "city",
    "lat": 50.8655,
    "lng": -1.03669,
    "pop": 9171
  },
  {
    "nameAr": "Hook",
    "nameEn": "Hook",
    "type": "city",
    "lat": 51.2773,
    "lng": -0.9633,
    "pop": 9069
  },
  {
    "nameAr": "Sileby",
    "nameEn": "Sileby",
    "type": "city",
    "lat": 52.731,
    "lng": -1.106,
    "pop": 8956
  },
  {
    "nameAr": "Egglescliffe",
    "nameEn": "Egglescliffe",
    "type": "city",
    "lat": 54.512,
    "lng": -1.35,
    "pop": 8953
  },
  {
    "nameAr": "Sompting",
    "nameEn": "Sompting",
    "type": "city",
    "lat": 50.8303,
    "lng": -0.3395,
    "pop": 8887
  },
  {
    "nameAr": "كارليون",
    "nameEn": "Caerleon",
    "type": "city",
    "lat": 51.610277777778,
    "lng": -2.9558333333333,
    "pop": 8708
  },
  {
    "nameAr": "Stansted Mountfitchet",
    "nameEn": "Stansted Mountfitchet",
    "type": "city",
    "lat": 51.898,
    "lng": 0.198,
    "pop": 8691
  },
  {
    "nameAr": "Thurnscoe",
    "nameEn": "Thurnscoe",
    "type": "city",
    "lat": 53.545980555556,
    "lng": -1.3163111111111,
    "pop": 8687
  },
  {
    "nameAr": "سانت اغنس",
    "nameEn": "St Agnes",
    "type": "city",
    "lat": 50.312,
    "lng": -5.204,
    "pop": 8591
  },
  {
    "nameAr": "East Leake",
    "nameEn": "East Leake",
    "type": "city",
    "lat": 52.829166666667,
    "lng": -1.1833333333333,
    "pop": 8553
  },
  {
    "nameAr": "يوبتون بي تشستر",
    "nameEn": "Upton-by-Chester",
    "type": "city",
    "lat": 53.214,
    "lng": -2.884,
    "pop": 8528
  },
  {
    "nameAr": "Sherburn in Elmet",
    "nameEn": "Sherburn in Elmet",
    "type": "city",
    "lat": 53.7973,
    "lng": -1.2331,
    "pop": 8497
  },
  {
    "nameAr": "Winshill",
    "nameEn": "Winshill",
    "type": "city",
    "lat": 52.807,
    "lng": -1.605,
    "pop": 8466
  },
  {
    "nameAr": "Edlington",
    "nameEn": "Edlington",
    "type": "city",
    "lat": 53.46,
    "lng": -1.2,
    "pop": 8357
  },
  {
    "nameAr": "توركروفت",
    "nameEn": "Thurcroft",
    "type": "city",
    "lat": 53.391,
    "lng": -1.252,
    "pop": 8344
  },
  {
    "nameAr": "Aughton",
    "nameEn": "Aughton",
    "type": "city",
    "lat": 53.542,
    "lng": -2.912,
    "pop": 8342
  },
  {
    "nameAr": "Goffs Oak",
    "nameEn": "Goffs Oak",
    "type": "city",
    "lat": 51.7109,
    "lng": -0.0825,
    "pop": 8172
  },
  {
    "nameAr": "Treorchy",
    "nameEn": "Treorchy",
    "type": "city",
    "lat": 51.6594,
    "lng": -3.5055,
    "pop": 8105
  },
  {
    "nameAr": "Farington",
    "nameEn": "Farington",
    "type": "city",
    "lat": 53.703,
    "lng": -2.685,
    "pop": 7857
  },
  {
    "nameAr": "Byfleet",
    "nameEn": "Byfleet",
    "type": "city",
    "lat": 51.34,
    "lng": -0.47,
    "pop": 7724
  },
  {
    "nameAr": "Anstey",
    "nameEn": "Anstey",
    "type": "city",
    "lat": 52.671480555556,
    "lng": -1.1954611111111,
    "pop": 7699
  },
  {
    "nameAr": "Countesthorpe",
    "nameEn": "Countesthorpe",
    "type": "city",
    "lat": 52.555,
    "lng": -1.14,
    "pop": 7672
  },
  {
    "nameAr": "Kingsbury",
    "nameEn": "Kingsbury",
    "type": "city",
    "lat": 52.561430555556,
    "lng": -1.69165,
    "pop": 7654
  },
  {
    "nameAr": "Ripponden",
    "nameEn": "Ripponden",
    "type": "city",
    "lat": 53.672,
    "lng": -1.946,
    "pop": 7598
  },
  {
    "nameAr": "ووتون",
    "nameEn": "Wootton",
    "type": "city",
    "lat": 52.0987,
    "lng": -0.5319,
    "pop": 7565
  },
  {
    "nameAr": "Currie",
    "nameEn": "Currie",
    "type": "city",
    "lat": 55.896,
    "lng": -3.30744,
    "pop": 7494
  },
  {
    "nameAr": "Woodmansey",
    "nameEn": "Woodmansey",
    "type": "city",
    "lat": 53.826711111111,
    "lng": -0.39841944444444,
    "pop": 7484
  },
  {
    "nameAr": "Marston Green",
    "nameEn": "Marston Green",
    "type": "city",
    "lat": 52.465,
    "lng": -1.74,
    "pop": 7432
  },
  {
    "nameAr": "Castle Donington",
    "nameEn": "Castle Donington",
    "type": "city",
    "lat": 52.844422222222,
    "lng": -1.3376944444444,
    "pop": 7346
  },
  {
    "nameAr": "Titchfield",
    "nameEn": "Titchfield",
    "type": "city",
    "lat": 50.8491,
    "lng": -1.2344,
    "pop": 7280
  },
  {
    "nameAr": "Claygate",
    "nameEn": "Claygate",
    "type": "city",
    "lat": 51.3607,
    "lng": -0.3421,
    "pop": 7263
  },
  {
    "nameAr": "Roby",
    "nameEn": "Roby",
    "type": "city",
    "lat": 53.413,
    "lng": -2.852,
    "pop": 7254
  },
  {
    "nameAr": "Frampton Cotterell",
    "nameEn": "Frampton Cotterell",
    "type": "city",
    "lat": 51.54,
    "lng": -2.48,
    "pop": 7188
  },
  {
    "nameAr": "Hethersett",
    "nameEn": "Hethersett",
    "type": "city",
    "lat": 52.598269444444,
    "lng": 1.1832694444444,
    "pop": 7129
  },
  {
    "nameAr": "Wardle",
    "nameEn": "Wardle",
    "type": "city",
    "lat": 53.6478,
    "lng": -2.1323,
    "pop": 7092
  },
  {
    "nameAr": "تويفرد",
    "nameEn": "Twyford",
    "type": "city",
    "lat": 51.477,
    "lng": -0.867,
    "pop": 6952
  },
  {
    "nameAr": "Keyworth",
    "nameEn": "Keyworth",
    "type": "city",
    "lat": 52.8739,
    "lng": -1.0831,
    "pop": 6920
  },
  {
    "nameAr": "Moodiesburn",
    "nameEn": "Moodiesburn",
    "type": "city",
    "lat": 55.908593,
    "lng": -4.082086,
    "pop": 6890
  },
  {
    "nameAr": "Catshill",
    "nameEn": "Catshill",
    "type": "city",
    "lat": 52.3622,
    "lng": -2.06016,
    "pop": 6858
  },
  {
    "nameAr": "Blaby",
    "nameEn": "Blaby",
    "type": "city",
    "lat": 52.5724,
    "lng": -1.16777,
    "pop": 6831
  },
  {
    "nameAr": "Barrow upon Soar",
    "nameEn": "Barrow upon Soar",
    "type": "city",
    "lat": 52.7517,
    "lng": -1.15,
    "pop": 6820
  },
  {
    "nameAr": "تشلفنت ست غيلس",
    "nameEn": "Chalfont St Giles",
    "type": "city",
    "lat": 51.632,
    "lng": -0.576,
    "pop": 6696
  },
  {
    "nameAr": "Aintree",
    "nameEn": "Aintree",
    "type": "city",
    "lat": 53.4793,
    "lng": -2.9373,
    "pop": 6689
  },
  {
    "nameAr": "كلستك",
    "nameEn": "Calstock",
    "type": "city",
    "lat": 50.497,
    "lng": -4.21,
    "pop": 6648
  },
  {
    "nameAr": "Sawley",
    "nameEn": "Sawley",
    "type": "city",
    "lat": 52.876,
    "lng": -1.297,
    "pop": 6645
  },
  {
    "nameAr": "هاندفورث",
    "nameEn": "Handforth",
    "type": "city",
    "lat": 53.35,
    "lng": -2.216,
    "pop": 6626
  },
  {
    "nameAr": "Wheathampstead",
    "nameEn": "Wheathampstead",
    "type": "city",
    "lat": 51.812,
    "lng": -0.293,
    "pop": 6622
  },
  {
    "nameAr": "ستك مندويل",
    "nameEn": "Stoke Mandeville",
    "type": "city",
    "lat": 51.7861,
    "lng": -0.7914,
    "pop": 6598
  },
  {
    "nameAr": "South Bank",
    "nameEn": "South Bank",
    "type": "city",
    "lat": 54.58,
    "lng": -1.17,
    "pop": 6548
  },
  {
    "nameAr": "بردول ابي",
    "nameEn": "Bradwell Abbey",
    "type": "city",
    "lat": 52.047752777778,
    "lng": -0.79465555555556,
    "pop": 6544
  },
  {
    "nameAr": "هاوورث",
    "nameEn": "Haworth",
    "type": "city",
    "lat": 53.831502,
    "lng": -1.955146,
    "pop": 6379
  },
  {
    "nameAr": "Houston",
    "nameEn": "Houston",
    "type": "city",
    "lat": 55.866969444444,
    "lng": -4.5520694444444,
    "pop": 6360
  },
  {
    "nameAr": "Oatlands",
    "nameEn": "Oatlands",
    "type": "city",
    "lat": 51.3681,
    "lng": -0.4008,
    "pop": 6352
  },
  {
    "nameAr": "Cheddleton",
    "nameEn": "Cheddleton",
    "type": "city",
    "lat": 53.064,
    "lng": -2.043,
    "pop": 6311
  },
  {
    "nameAr": "Colney Heath",
    "nameEn": "Colney Heath",
    "type": "city",
    "lat": 51.735269444444,
    "lng": -0.2564,
    "pop": 6267
  },
  {
    "nameAr": "Chalford",
    "nameEn": "Chalford",
    "type": "city",
    "lat": 51.723830555556,
    "lng": -2.1490694444444,
    "pop": 6215
  },
  {
    "nameAr": "Barrowford",
    "nameEn": "Barrowford",
    "type": "city",
    "lat": 53.851,
    "lng": -2.221,
    "pop": 6171
  },
  {
    "nameAr": "Rowlands Gill",
    "nameEn": "Rowlands Gill",
    "type": "city",
    "lat": 54.9209,
    "lng": -1.7441,
    "pop": 6096
  },
  {
    "nameAr": "Areley Kings",
    "nameEn": "Areley Kings",
    "type": "city",
    "lat": 52.331319444444,
    "lng": -2.29345,
    "pop": 6041
  },
  {
    "nameAr": "Werrington",
    "nameEn": "Werrington",
    "type": "city",
    "lat": 53.024722222222,
    "lng": -2.0872222222222,
    "pop": 6009
  },
  {
    "nameAr": "Alvechurch",
    "nameEn": "Alvechurch",
    "type": "city",
    "lat": 52.350561111111,
    "lng": -1.9647194444444,
    "pop": 5944
  },
  {
    "nameAr": "Hemlington",
    "nameEn": "Hemlington",
    "type": "city",
    "lat": 54.524,
    "lng": -1.239,
    "pop": 5900
  },
  {
    "nameAr": "فلكول هيث",
    "nameEn": "Flackwell Heath",
    "type": "city",
    "lat": 51.600869444444,
    "lng": -0.71205,
    "pop": 5900
  },
  {
    "nameAr": "High Lane",
    "nameEn": "High Lane",
    "type": "city",
    "lat": 53.3642,
    "lng": -2.0681,
    "pop": 5852
  },
  {
    "nameAr": "Locharbriggs",
    "nameEn": "Locharbriggs",
    "type": "city",
    "lat": 55.1,
    "lng": -3.58333,
    "pop": 5830
  },
  {
    "nameAr": "كوهم",
    "nameEn": "Cookham",
    "type": "city",
    "lat": 51.558,
    "lng": -0.708,
    "pop": 5779
  },
  {
    "nameAr": "New Haw",
    "nameEn": "New Haw",
    "type": "city",
    "lat": 51.358,
    "lng": -0.4888,
    "pop": 5757
  },
  {
    "nameAr": "ويلينجتون",
    "nameEn": "Willington",
    "type": "city",
    "lat": 54.71,
    "lng": -1.69,
    "pop": 5749
  },
  {
    "nameAr": "سونينغدل",
    "nameEn": "Sunningdale",
    "type": "city",
    "lat": 51.398,
    "lng": -0.626,
    "pop": 5638
  },
  {
    "nameAr": "Writtle",
    "nameEn": "Writtle",
    "type": "city",
    "lat": 51.729,
    "lng": 0.427,
    "pop": 5632
  },
  {
    "nameAr": "Bovingdon",
    "nameEn": "Bovingdon",
    "type": "city",
    "lat": 51.723030555556,
    "lng": -0.53231666666667,
    "pop": 5608
  },
  {
    "nameAr": "وتربيتش",
    "nameEn": "Waterbeach",
    "type": "city",
    "lat": 52.266419444444,
    "lng": 0.19083888888889,
    "pop": 5596
  },
  {
    "nameAr": "إيلغن",
    "nameEn": "Illogan",
    "type": "city",
    "lat": 50.25,
    "lng": -5.268,
    "pop": 5585
  },
  {
    "nameAr": "Moorends",
    "nameEn": "Moorends",
    "type": "city",
    "lat": 53.6333,
    "lng": -0.95,
    "pop": 5500
  },
  {
    "nameAr": "Drayton",
    "nameEn": "Drayton",
    "type": "city",
    "lat": 52.675,
    "lng": 1.225,
    "pop": 5489
  },
  {
    "nameAr": "Ludgershall",
    "nameEn": "Ludgershall",
    "type": "city",
    "lat": 51.2566,
    "lng": -1.6209,
    "pop": 5477
  },
  {
    "nameAr": "Wyke Regis",
    "nameEn": "Wyke Regis",
    "type": "city",
    "lat": 50.592,
    "lng": -2.475,
    "pop": 5458
  },
  {
    "nameAr": "Redbourn",
    "nameEn": "Redbourn",
    "type": "city",
    "lat": 51.8002,
    "lng": -0.3965,
    "pop": 5450
  },
  {
    "nameAr": "Westhill",
    "nameEn": "Westhill",
    "type": "city",
    "lat": 57.4693,
    "lng": -4.15893,
    "pop": 5410
  },
  {
    "nameAr": "Brotton",
    "nameEn": "Brotton",
    "type": "city",
    "lat": 54.568,
    "lng": -0.937,
    "pop": 5394
  },
  {
    "nameAr": "Eynsham",
    "nameEn": "Eynsham",
    "type": "city",
    "lat": 51.781,
    "lng": -1.375,
    "pop": 5323
  },
  {
    "nameAr": "Polmont",
    "nameEn": "Polmont",
    "type": "city",
    "lat": 55.9908,
    "lng": -3.7064,
    "pop": 5320
  },
  {
    "nameAr": "Swanwick",
    "nameEn": "Swanwick",
    "type": "city",
    "lat": 53.075,
    "lng": -1.398,
    "pop": 5316
  },
  {
    "nameAr": "Kings Langley",
    "nameEn": "Kings Langley",
    "type": "city",
    "lat": 51.71559,
    "lng": -0.45692,
    "pop": 5289
  },
  {
    "nameAr": "نيلستن",
    "nameEn": "Neilston",
    "type": "city",
    "lat": 55.7847,
    "lng": -4.4234,
    "pop": 5170
  },
  {
    "nameAr": "دتشت",
    "nameEn": "Datchet",
    "type": "city",
    "lat": 51.4841,
    "lng": -0.5762,
    "pop": 5141
  },
  {
    "nameAr": "Elstree",
    "nameEn": "Elstree",
    "type": "city",
    "lat": 51.64,
    "lng": -0.3,
    "pop": 5110
  },
  {
    "nameAr": "Meols",
    "nameEn": "Meols",
    "type": "city",
    "lat": 53.4014,
    "lng": -3.1553,
    "pop": 5110
  },
  {
    "nameAr": "ستك بغس",
    "nameEn": "Stoke Poges",
    "type": "city",
    "lat": 51.546,
    "lng": -0.584,
    "pop": 5067
  },
  {
    "nameAr": "Treforest",
    "nameEn": "Treforest",
    "type": "city",
    "lat": 51.5878,
    "lng": -3.3221,
    "pop": 5050
  },
  {
    "nameAr": "Easington Colliery",
    "nameEn": "Easington Colliery",
    "type": "city",
    "lat": 54.786811111111,
    "lng": -1.3291194444444,
    "pop": 5022
  },
  {
    "nameAr": "بارتون له كلي",
    "nameEn": "Barton-le-Clay",
    "type": "city",
    "lat": 51.9669,
    "lng": -0.4241,
    "pop": 4992
  },
  {
    "nameAr": "Hilperton",
    "nameEn": "Hilperton",
    "type": "city",
    "lat": 51.33,
    "lng": -2.19,
    "pop": 4967
  },
  {
    "nameAr": "برمهم",
    "nameEn": "Bromham",
    "type": "city",
    "lat": 52.1454,
    "lng": -0.5298,
    "pop": 4957
  },
  {
    "nameAr": "Forest Row",
    "nameEn": "Forest Row",
    "type": "city",
    "lat": 51.098194444444,
    "lng": 0.033416666666667,
    "pop": 4954
  },
  {
    "nameAr": "Bridge of Weir",
    "nameEn": "Bridge of Weir",
    "type": "city",
    "lat": 55.856511111111,
    "lng": -4.5776666666667,
    "pop": 4820
  },
  {
    "nameAr": "Menston",
    "nameEn": "Menston",
    "type": "city",
    "lat": 53.8912,
    "lng": -1.7344,
    "pop": 4798
  },
  {
    "nameAr": "Fauldhouse",
    "nameEn": "Fauldhouse",
    "type": "city",
    "lat": 55.8272,
    "lng": -3.70907,
    "pop": 4780
  },
  {
    "nameAr": "Dersingham",
    "nameEn": "Dersingham",
    "type": "city",
    "lat": 52.844711111111,
    "lng": 0.502,
    "pop": 4753
  },
  {
    "nameAr": "Kirkliston",
    "nameEn": "Kirkliston",
    "type": "city",
    "lat": 55.95,
    "lng": -3.4,
    "pop": 4740
  },
  {
    "nameAr": "Kingswells",
    "nameEn": "Kingswells",
    "type": "city",
    "lat": 57.16,
    "lng": -2.22306,
    "pop": 4740
  },
  {
    "nameAr": "Huntington",
    "nameEn": "Huntington",
    "type": "city",
    "lat": 52.715,
    "lng": -2.042,
    "pop": 4716
  },
  {
    "nameAr": "غريت دنهم",
    "nameEn": "Great Denham",
    "type": "city",
    "lat": 52.1344,
    "lng": -0.514722,
    "pop": 4697
  },
  {
    "nameAr": "Hamble-le-Rice",
    "nameEn": "Hamble-le-Rice",
    "type": "city",
    "lat": 50.85966,
    "lng": -1.32432,
    "pop": 4695
  },
  {
    "nameAr": "West Hallam",
    "nameEn": "West Hallam",
    "type": "city",
    "lat": 52.97,
    "lng": -1.36,
    "pop": 4686
  },
  {
    "nameAr": "ميلتون",
    "nameEn": "Milton",
    "type": "city",
    "lat": 52.243469444444,
    "lng": 0.16146944444444,
    "pop": 4679
  },
  {
    "nameAr": "Standon",
    "nameEn": "Standon",
    "type": "city",
    "lat": 51.882658333333,
    "lng": 0.029211111111111,
    "pop": 4675
  },
  {
    "nameAr": "Stakeford",
    "nameEn": "Stakeford",
    "type": "city",
    "lat": 55.163,
    "lng": -1.586,
    "pop": 4672
  },
  {
    "nameAr": "Grimethorpe",
    "nameEn": "Grimethorpe",
    "type": "city",
    "lat": 53.57,
    "lng": -1.38,
    "pop": 4672
  },
  {
    "nameAr": "جايويك",
    "nameEn": "Jaywick",
    "type": "city",
    "lat": 51.7795,
    "lng": 1.1174,
    "pop": 4665
  },
  {
    "nameAr": "أوفرتون، هامشير",
    "nameEn": "Overton",
    "type": "city",
    "lat": 51.2439,
    "lng": -1.2615,
    "pop": 4665
  },
  {
    "nameAr": "Great Ayton",
    "nameEn": "Great Ayton",
    "type": "city",
    "lat": 54.495688888889,
    "lng": -1.1291888888889,
    "pop": 4629
  },
  {
    "nameAr": "Norton",
    "nameEn": "Norton",
    "type": "city",
    "lat": 53.633,
    "lng": -1.175,
    "pop": 4625
  },
  {
    "nameAr": "Lingfield",
    "nameEn": "Lingfield",
    "type": "city",
    "lat": 51.175,
    "lng": -0.0171,
    "pop": 4621
  },
  {
    "nameAr": "Kennoway",
    "nameEn": "Kennoway",
    "type": "city",
    "lat": 56.2,
    "lng": -3.05,
    "pop": 4610
  },
  {
    "nameAr": "Moira",
    "nameEn": "Moira",
    "type": "city",
    "lat": 54.48,
    "lng": -6.232,
    "pop": 4591
  },
  {
    "nameAr": "Desford",
    "nameEn": "Desford",
    "type": "city",
    "lat": 52.625,
    "lng": -1.295,
    "pop": 4591
  },
  {
    "nameAr": "تددينغتون",
    "nameEn": "Toddington",
    "type": "city",
    "lat": 51.95,
    "lng": -0.53,
    "pop": 4585
  },
  {
    "nameAr": "Peterculter",
    "nameEn": "Peterculter",
    "type": "city",
    "lat": 57.097,
    "lng": -2.2657,
    "pop": 4570
  },
  {
    "nameAr": "كلافام",
    "nameEn": "Clapham",
    "type": "city",
    "lat": 52.164891666667,
    "lng": -0.50196388888889,
    "pop": 4560
  },
  {
    "nameAr": "Markfield",
    "nameEn": "Markfield",
    "type": "city",
    "lat": 52.687802777778,
    "lng": -1.2775111111111,
    "pop": 4554
  },
  {
    "nameAr": "Knebworth",
    "nameEn": "Knebworth",
    "type": "city",
    "lat": 51.866,
    "lng": -0.184,
    "pop": 4538
  },
  {
    "nameAr": "Finedon",
    "nameEn": "Finedon",
    "type": "city",
    "lat": 52.334,
    "lng": -0.6597,
    "pop": 4536
  },
  {
    "nameAr": "كاميلون",
    "nameEn": "Camelon",
    "type": "city",
    "lat": 56.004597222222,
    "lng": -3.8174527777778,
    "pop": 4508
  },
  {
    "nameAr": "Loggerheads",
    "nameEn": "Loggerheads",
    "type": "city",
    "lat": 52.9192,
    "lng": -2.3893,
    "pop": 4480
  },
  {
    "nameAr": "Blidworth",
    "nameEn": "Blidworth",
    "type": "city",
    "lat": 53.098,
    "lng": -1.1165,
    "pop": 4457
  },
  {
    "nameAr": "Aldingbourne",
    "nameEn": "Aldingbourne",
    "type": "city",
    "lat": 50.8413,
    "lng": -0.6897,
    "pop": 4446
  },
  {
    "nameAr": "Albrighton",
    "nameEn": "Albrighton",
    "type": "city",
    "lat": 52.6344,
    "lng": -2.277,
    "pop": 4444
  },
  {
    "nameAr": "ويلينهم",
    "nameEn": "Willingham",
    "type": "city",
    "lat": 52.32,
    "lng": 0.07,
    "pop": 4423
  },
  {
    "nameAr": "وريسبوري",
    "nameEn": "Wraysbury",
    "type": "city",
    "lat": 51.458,
    "lng": -0.552,
    "pop": 4378
  },
  {
    "nameAr": "سيتون ديلافل",
    "nameEn": "Seaton Delaval",
    "type": "city",
    "lat": 55.0826,
    "lng": -1.4778,
    "pop": 4371
  },
  {
    "nameAr": "Box",
    "nameEn": "Box",
    "type": "city",
    "lat": 51.414730555556,
    "lng": -2.2521972222222,
    "pop": 4363
  },
  {
    "nameAr": "Calverley",
    "nameEn": "Calverley",
    "type": "city",
    "lat": 53.8266,
    "lng": -1.6908,
    "pop": 4328
  },
  {
    "nameAr": "Kessingland",
    "nameEn": "Kessingland",
    "type": "city",
    "lat": 52.419,
    "lng": 1.723,
    "pop": 4327
  },
  {
    "nameAr": "كاددينغتون",
    "nameEn": "Caddington",
    "type": "city",
    "lat": 51.863080555556,
    "lng": -0.45678888888889,
    "pop": 4297
  },
  {
    "nameAr": "ديسلي",
    "nameEn": "Disley",
    "type": "city",
    "lat": 53.357,
    "lng": -2.043,
    "pop": 4294
  },
  {
    "nameAr": "كيغوورث",
    "nameEn": "Kegworth",
    "type": "city",
    "lat": 52.836944444444,
    "lng": -1.2836111111111,
    "pop": 4290
  },
  {
    "nameAr": "Headcorn",
    "nameEn": "Headcorn",
    "type": "city",
    "lat": 51.169547222222,
    "lng": 0.62034166666667,
    "pop": 4277
  },
  {
    "nameAr": "Bourton-on-the-Water",
    "nameEn": "Bourton-on-the-Water",
    "type": "city",
    "lat": 51.886,
    "lng": -1.759,
    "pop": 4181
  },
  {
    "nameAr": "Darenth",
    "nameEn": "Darenth",
    "type": "city",
    "lat": 51.4199,
    "lng": 0.2567,
    "pop": 4150
  },
  {
    "nameAr": "Bricket Wood",
    "nameEn": "Bricket Wood",
    "type": "city",
    "lat": 51.7067,
    "lng": -0.3686,
    "pop": 4095
  },
  {
    "nameAr": "Blofield",
    "nameEn": "Blofield",
    "type": "city",
    "lat": 52.635,
    "lng": 1.448,
    "pop": 4087
  },
  {
    "nameAr": "Whalley",
    "nameEn": "Whalley",
    "type": "city",
    "lat": 53.824088888889,
    "lng": -2.40405,
    "pop": 4052
  },
  {
    "nameAr": "Kilmacolm",
    "nameEn": "Kilmacolm",
    "type": "city",
    "lat": 55.8941,
    "lng": -4.62708,
    "pop": 4000
  },
  {
    "nameAr": "South Cerney",
    "nameEn": "South Cerney",
    "type": "city",
    "lat": 51.671,
    "lng": -1.932,
    "pop": 3998
  },
  {
    "nameAr": "Earls Colne",
    "nameEn": "Earls Colne",
    "type": "city",
    "lat": 51.928,
    "lng": 0.702,
    "pop": 3971
  },
  {
    "nameAr": "Royal Hillsborough",
    "nameEn": "Royal Hillsborough",
    "type": "city",
    "lat": 54.462,
    "lng": -6.083,
    "pop": 3952
  },
  {
    "nameAr": "Ushaw Moor",
    "nameEn": "Ushaw Moor",
    "type": "city",
    "lat": 54.7767,
    "lng": -1.64333,
    "pop": 3941
  },
  {
    "nameAr": "ورغروف",
    "nameEn": "Wargrave",
    "type": "city",
    "lat": 51.499,
    "lng": -0.867,
    "pop": 3935
  },
  {
    "nameAr": "لونغ ميلفورد",
    "nameEn": "Long Melford",
    "type": "city",
    "lat": 52.077,
    "lng": 0.718,
    "pop": 3897
  },
  {
    "nameAr": "غريت لوملي",
    "nameEn": "Great Lumley",
    "type": "city",
    "lat": 54.837319444444,
    "lng": -1.5412305555556,
    "pop": 3843
  },
  {
    "nameAr": "Milton of Campsie",
    "nameEn": "Milton of Campsie",
    "type": "city",
    "lat": 55.9643,
    "lng": -4.16195,
    "pop": 3840
  },
  {
    "nameAr": "هنلو",
    "nameEn": "Henlow",
    "type": "city",
    "lat": 52.03245,
    "lng": -0.28713888888889,
    "pop": 3815
  },
  {
    "nameAr": "سمرشم",
    "nameEn": "Somersham",
    "type": "city",
    "lat": 52.382255555556,
    "lng": 0.00061111111111111,
    "pop": 3810
  },
  {
    "nameAr": "Buckland Monachorum",
    "nameEn": "Buckland Monachorum",
    "type": "city",
    "lat": 50.495555555556,
    "lng": -4.1308333333333,
    "pop": 3798
  },
  {
    "nameAr": "Pewsey",
    "nameEn": "Pewsey",
    "type": "city",
    "lat": 51.343,
    "lng": -1.764,
    "pop": 3790
  },
  {
    "nameAr": "Addingham",
    "nameEn": "Addingham",
    "type": "city",
    "lat": 53.9333,
    "lng": -1.8833,
    "pop": 3784
  },
  {
    "nameAr": "Auchinleck",
    "nameEn": "Auchinleck",
    "type": "city",
    "lat": 55.468317,
    "lng": -4.292727,
    "pop": 3730
  },
  {
    "nameAr": "Harewood",
    "nameEn": "Harewood",
    "type": "city",
    "lat": 53.9,
    "lng": -1.51,
    "pop": 3696
  },
  {
    "nameAr": "Waringstown",
    "nameEn": "Waringstown",
    "type": "city",
    "lat": 54.4336,
    "lng": -6.299,
    "pop": 3683
  },
  {
    "nameAr": "Corbridge",
    "nameEn": "Corbridge",
    "type": "city",
    "lat": 54.975,
    "lng": -2.017,
    "pop": 3672
  },
  {
    "nameAr": "Taff's Well",
    "nameEn": "Taff's Well",
    "type": "city",
    "lat": 51.5454,
    "lng": -3.27025,
    "pop": 3672
  },
  {
    "nameAr": "Welham Green",
    "nameEn": "Welham Green",
    "type": "city",
    "lat": 51.7347,
    "lng": -0.21732,
    "pop": 3639
  },
  {
    "nameAr": "Heckington",
    "nameEn": "Heckington",
    "type": "city",
    "lat": 52.982,
    "lng": -0.304,
    "pop": 3634
  },
  {
    "nameAr": "Slaugham",
    "nameEn": "Slaugham",
    "type": "city",
    "lat": 51.0387,
    "lng": -0.20823888888889,
    "pop": 3628
  },
  {
    "nameAr": "Water Orton",
    "nameEn": "Water Orton",
    "type": "city",
    "lat": 52.517,
    "lng": -1.736,
    "pop": 3573
  },
  {
    "nameAr": "Lytchett Matravers",
    "nameEn": "Lytchett Matravers",
    "type": "city",
    "lat": 50.756,
    "lng": -2.07,
    "pop": 3570
  },
  {
    "nameAr": "Bramley",
    "nameEn": "Bramley",
    "type": "city",
    "lat": 51.1934,
    "lng": -0.5576,
    "pop": 3559
  },
  {
    "nameAr": "Donington",
    "nameEn": "Donington",
    "type": "city",
    "lat": 52.643,
    "lng": -2.285,
    "pop": 3556
  },
  {
    "nameAr": "نيو بردول",
    "nameEn": "New Bradwell",
    "type": "city",
    "lat": 52.067311111111,
    "lng": -0.78348888888889,
    "pop": 3509
  },
  {
    "nameAr": "Kirkheaton",
    "nameEn": "Kirkheaton",
    "type": "city",
    "lat": 53.6552,
    "lng": -1.729,
    "pop": 3496
  },
  {
    "nameAr": "Yelverton",
    "nameEn": "Yelverton",
    "type": "city",
    "lat": 50.492,
    "lng": -4.086,
    "pop": 3493
  },
  {
    "nameAr": "St Asaph",
    "nameEn": "St Asaph",
    "type": "city",
    "lat": 53.25928,
    "lng": -3.44849,
    "pop": 3491
  },
  {
    "nameAr": "سانت أساف",
    "nameEn": "St Asaph",
    "type": "city",
    "lat": 53.2577,
    "lng": -3.4416,
    "pop": 3485
  },
  {
    "nameAr": "Broadway",
    "nameEn": "Broadway",
    "type": "city",
    "lat": 52.04,
    "lng": -1.86,
    "pop": 3482
  },
  {
    "nameAr": "Crondall",
    "nameEn": "Crondall",
    "type": "city",
    "lat": 51.233261111111,
    "lng": -0.86272777777778,
    "pop": 3463
  },
  {
    "nameAr": "Harrietsham",
    "nameEn": "Harrietsham",
    "type": "city",
    "lat": 51.243333333333,
    "lng": 0.67333333333333,
    "pop": 3443
  },
  {
    "nameAr": "رنهلد",
    "nameEn": "Renhold",
    "type": "city",
    "lat": 52.164,
    "lng": -0.4072,
    "pop": 3434
  },
  {
    "nameAr": "Tupton",
    "nameEn": "Tupton",
    "type": "city",
    "lat": 53.190511111111,
    "lng": -1.4072888888889,
    "pop": 3428
  },
  {
    "nameAr": "Ahoghill",
    "nameEn": "Ahoghill",
    "type": "city",
    "lat": 54.8667,
    "lng": -6.36667,
    "pop": 3417
  },
  {
    "nameAr": "كليفتون",
    "nameEn": "Clifton",
    "type": "city",
    "lat": 52.03856,
    "lng": -0.29994,
    "pop": 3402
  },
  {
    "nameAr": "Eaglesham",
    "nameEn": "Eaglesham",
    "type": "city",
    "lat": 55.7394,
    "lng": -4.27333,
    "pop": 3400
  },
  {
    "nameAr": "Saintfield",
    "nameEn": "Saintfield",
    "type": "city",
    "lat": 54.46,
    "lng": -5.83,
    "pop": 3381
  },
  {
    "nameAr": "Newbuildings",
    "nameEn": "Newbuildings",
    "type": "city",
    "lat": 54.958,
    "lng": -7.355,
    "pop": 3381
  },
  {
    "nameAr": "Grassmoor",
    "nameEn": "Grassmoor",
    "type": "city",
    "lat": 53.201,
    "lng": -1.397,
    "pop": 3360
  },
  {
    "nameAr": "West Bergholt",
    "nameEn": "West Bergholt",
    "type": "city",
    "lat": 51.91,
    "lng": 0.85,
    "pop": 3344
  },
  {
    "nameAr": "Mid Calder",
    "nameEn": "Mid Calder",
    "type": "city",
    "lat": 55.8918,
    "lng": -3.481,
    "pop": 3340
  },
  {
    "nameAr": "Tangmere",
    "nameEn": "Tangmere",
    "type": "city",
    "lat": 50.8509,
    "lng": -0.7157,
    "pop": 3334
  },
  {
    "nameAr": "Adderbury",
    "nameEn": "Adderbury",
    "type": "city",
    "lat": 52.016,
    "lng": -1.313,
    "pop": 3316
  },
  {
    "nameAr": "Pevensey",
    "nameEn": "Pevensey",
    "type": "city",
    "lat": 50.820555555556,
    "lng": 0.33805555555556,
    "pop": 3307
  },
  {
    "nameAr": "تورفين",
    "nameEn": "Tarvin",
    "type": "city",
    "lat": 53.1949,
    "lng": -2.7668,
    "pop": 3286
  },
  {
    "nameAr": "Rotherfield",
    "nameEn": "Rotherfield",
    "type": "city",
    "lat": 51.04,
    "lng": 0.22,
    "pop": 3283
  },
  {
    "nameAr": "ويلستيد",
    "nameEn": "Wilstead",
    "type": "city",
    "lat": 52.0666,
    "lng": -0.4333,
    "pop": 3270
  },
  {
    "nameAr": "Rolleston on Dove",
    "nameEn": "Rolleston on Dove",
    "type": "city",
    "lat": 52.844497222222,
    "lng": -1.6525361111111,
    "pop": 3267
  },
  {
    "nameAr": "Ludgvan",
    "nameEn": "Ludgvan",
    "type": "city",
    "lat": 50.144,
    "lng": -5.495,
    "pop": 3261
  },
  {
    "nameAr": "Dunnington",
    "nameEn": "Dunnington",
    "type": "city",
    "lat": 53.965419444444,
    "lng": -0.9787,
    "pop": 3257
  },
  {
    "nameAr": "فيرفيلد بارك",
    "nameEn": "Fairfield",
    "type": "city",
    "lat": 52,
    "lng": -0.25,
    "pop": 3251
  },
  {
    "nameAr": "Berkswell",
    "nameEn": "Berkswell",
    "type": "city",
    "lat": 52.409,
    "lng": -1.642,
    "pop": 3244
  },
  {
    "nameAr": "Rottingdean",
    "nameEn": "Rottingdean",
    "type": "city",
    "lat": 50.815,
    "lng": -0.065,
    "pop": 3229
  },
  {
    "nameAr": "Malvern Wells",
    "nameEn": "Malvern Wells",
    "type": "city",
    "lat": 52.078477777778,
    "lng": -2.3323555555556,
    "pop": 3219
  },
  {
    "nameAr": "Chestfield",
    "nameEn": "Chestfield",
    "type": "city",
    "lat": 51.355,
    "lng": 1.064,
    "pop": 3214
  },
  {
    "nameAr": "بيددنهم",
    "nameEn": "Biddenham",
    "type": "city",
    "lat": 52.140611111111,
    "lng": -0.50511111111111,
    "pop": 3201
  },
  {
    "nameAr": "كرفت",
    "nameEn": "Croft",
    "type": "city",
    "lat": 53.437,
    "lng": -2.5524,
    "pop": 3194
  },
  {
    "nameAr": "Treeton",
    "nameEn": "Treeton",
    "type": "city",
    "lat": 53.384502777778,
    "lng": -1.3512722222222,
    "pop": 3189
  },
  {
    "nameAr": "Drongan",
    "nameEn": "Drongan",
    "type": "city",
    "lat": 55.4355,
    "lng": -4.4599,
    "pop": 3180
  },
  {
    "nameAr": "St Fagans",
    "nameEn": "St Fagans",
    "type": "city",
    "lat": 51.487,
    "lng": -3.268,
    "pop": 3158
  },
  {
    "nameAr": "Thingwall",
    "nameEn": "Thingwall",
    "type": "city",
    "lat": 53.353,
    "lng": -3.092,
    "pop": 3140
  },
  {
    "nameAr": "Newtonhill",
    "nameEn": "Newtonhill",
    "type": "city",
    "lat": 57.032,
    "lng": -2.15,
    "pop": 3140
  },
  {
    "nameAr": "Oldmeldrum",
    "nameEn": "Oldmeldrum",
    "type": "city",
    "lat": 57.335,
    "lng": -2.32,
    "pop": 3140
  },
  {
    "nameAr": "Ballygowan",
    "nameEn": "Ballygowan",
    "type": "city",
    "lat": 54.5,
    "lng": -5.8,
    "pop": 3138
  },
  {
    "nameAr": "West Calder",
    "nameEn": "West Calder",
    "type": "city",
    "lat": 55.852,
    "lng": -3.56854,
    "pop": 3130
  },
  {
    "nameAr": "هورام",
    "nameEn": "Horam",
    "type": "city",
    "lat": 50.93,
    "lng": 0.24,
    "pop": 3121
  },
  {
    "nameAr": "تششم بويس",
    "nameEn": "Chesham Bois",
    "type": "city",
    "lat": 51.685,
    "lng": -0.605,
    "pop": 3117
  },
  {
    "nameAr": "للنفيربوللغوينغيلل",
    "nameEn": "Llanfairpwllgwyngyll",
    "type": "city",
    "lat": 53.223333,
    "lng": -4.199444,
    "pop": 3107
  },
  {
    "nameAr": "Feltwell",
    "nameEn": "Feltwell",
    "type": "city",
    "lat": 52.486413888889,
    "lng": 0.51936388888889,
    "pop": 3106
  },
  {
    "nameAr": "Uffculme",
    "nameEn": "Uffculme",
    "type": "city",
    "lat": 50.9064,
    "lng": -3.3266,
    "pop": 3087
  },
  {
    "nameAr": "ستوندن",
    "nameEn": "Stondon",
    "type": "city",
    "lat": 52.003,
    "lng": -0.318,
    "pop": 3085
  },
  {
    "nameAr": "Wrecclesham",
    "nameEn": "Wrecclesham",
    "type": "city",
    "lat": 51.1987,
    "lng": -0.8181,
    "pop": 3079
  },
  {
    "nameAr": "برنبرث",
    "nameEn": "Perranporth",
    "type": "city",
    "lat": 50.345461,
    "lng": -5.153422,
    "pop": 3066
  },
  {
    "nameAr": "Prees",
    "nameEn": "Prees",
    "type": "city",
    "lat": 52.897,
    "lng": -2.666,
    "pop": 3060
  },
  {
    "nameAr": "Sutton Courtenay",
    "nameEn": "Sutton Courtenay",
    "type": "city",
    "lat": 51.642,
    "lng": -1.276,
    "pop": 3055
  },
  {
    "nameAr": "Keady",
    "nameEn": "Keady",
    "type": "city",
    "lat": 54.2483,
    "lng": -6.7046,
    "pop": 3051
  },
  {
    "nameAr": "Barrow upon Humber",
    "nameEn": "Barrow upon Humber",
    "type": "city",
    "lat": 53.675,
    "lng": -0.381845,
    "pop": 3046
  },
  {
    "nameAr": "Groomsport",
    "nameEn": "Groomsport",
    "type": "city",
    "lat": 54.667,
    "lng": -5.617,
    "pop": 3005
  },
  {
    "nameAr": "هوغتون كونكوست",
    "nameEn": "Houghton Conquest",
    "type": "city",
    "lat": 52.06315,
    "lng": -0.47396111111111,
    "pop": 3005
  },
  {
    "nameAr": "Clifton upon Dunsmore",
    "nameEn": "Clifton upon Dunsmore",
    "type": "city",
    "lat": 52.39,
    "lng": -1.22,
    "pop": 2999
  },
  {
    "nameAr": "الستو",
    "nameEn": "Elstow",
    "type": "city",
    "lat": 52.106961111111,
    "lng": -0.46486944444444,
    "pop": 2986
  },
  {
    "nameAr": "وينغ",
    "nameEn": "Wing",
    "type": "city",
    "lat": 51.898,
    "lng": -0.717,
    "pop": 2972
  },
  {
    "nameAr": "Chiddingfold",
    "nameEn": "Chiddingfold",
    "type": "city",
    "lat": 51.1113,
    "lng": -0.6282,
    "pop": 2960
  },
  {
    "nameAr": "Moulton",
    "nameEn": "Moulton",
    "type": "city",
    "lat": 53.2167,
    "lng": -2.51667,
    "pop": 2934
  },
  {
    "nameAr": "South Brent",
    "nameEn": "South Brent",
    "type": "city",
    "lat": 50.428061111111,
    "lng": -3.8358305555556,
    "pop": 2929
  },
  {
    "nameAr": "Bobbing",
    "nameEn": "Bobbing",
    "type": "city",
    "lat": 51.349997222222,
    "lng": 0.7,
    "pop": 2913
  },
  {
    "nameAr": "Aboyne",
    "nameEn": "Aboyne",
    "type": "city",
    "lat": 57.0766,
    "lng": -2.77949,
    "pop": 2910
  },
  {
    "nameAr": "Withyham",
    "nameEn": "Withyham",
    "type": "city",
    "lat": 51.1,
    "lng": 0.132,
    "pop": 2854
  },
  {
    "nameAr": "Ottershaw",
    "nameEn": "Ottershaw",
    "type": "city",
    "lat": 51.3628,
    "lng": -0.5306,
    "pop": 2853
  },
  {
    "nameAr": "فردهم",
    "nameEn": "Fordham",
    "type": "city",
    "lat": 52.32,
    "lng": 0.38,
    "pop": 2848
  },
  {
    "nameAr": "سيلفرستون",
    "nameEn": "Silverstone",
    "type": "city",
    "lat": 52.09,
    "lng": -1.024,
    "pop": 2835
  },
  {
    "nameAr": "Mintlaw",
    "nameEn": "Mintlaw",
    "type": "city",
    "lat": 57.525,
    "lng": -2.001,
    "pop": 2820
  },
  {
    "nameAr": "Glenboig",
    "nameEn": "Glenboig",
    "type": "city",
    "lat": 55.8933,
    "lng": -4.0449,
    "pop": 2820
  },
  {
    "nameAr": "Danderhall",
    "nameEn": "Danderhall",
    "type": "city",
    "lat": 55.9128,
    "lng": -3.10569,
    "pop": 2810
  },
  {
    "nameAr": "Rostrevor",
    "nameEn": "Rostrevor",
    "type": "city",
    "lat": 54.1,
    "lng": -6.2,
    "pop": 2800
  },
  {
    "nameAr": "Hatton",
    "nameEn": "Hatton",
    "type": "city",
    "lat": 52.867,
    "lng": -1.68,
    "pop": 2785
  },
  {
    "nameAr": "Castlewellan",
    "nameEn": "Castlewellan",
    "type": "city",
    "lat": 54.267,
    "lng": -5.933,
    "pop": 2782
  },
  {
    "nameAr": "Kilmaurs",
    "nameEn": "Kilmaurs",
    "type": "city",
    "lat": 55.6394,
    "lng": -4.53028,
    "pop": 2780
  },
  {
    "nameAr": "Mundesley",
    "nameEn": "Mundesley",
    "type": "city",
    "lat": 52.876,
    "lng": 1.438,
    "pop": 2778
  },
  {
    "nameAr": "Ellington",
    "nameEn": "Ellington",
    "type": "city",
    "lat": 55.2209,
    "lng": -1.5621,
    "pop": 2778
  },
  {
    "nameAr": "Wouldham",
    "nameEn": "Wouldham",
    "type": "city",
    "lat": 51.349638888889,
    "lng": 0.45836111111111,
    "pop": 2774
  },
  {
    "nameAr": "Argoed",
    "nameEn": "Argoed",
    "type": "city",
    "lat": 51.690277777778,
    "lng": -3.1913888888889,
    "pop": 2769
  },
  {
    "nameAr": "Burton upon Stather",
    "nameEn": "Burton upon Stather",
    "type": "city",
    "lat": 53.649411111111,
    "lng": -0.68485,
    "pop": 2753
  },
  {
    "nameAr": "Icklesham",
    "nameEn": "Icklesham",
    "type": "city",
    "lat": 50.915277777778,
    "lng": 0.66722222222222,
    "pop": 2751
  },
  {
    "nameAr": "Mattishall",
    "nameEn": "Mattishall",
    "type": "city",
    "lat": 52.6585,
    "lng": 1.0346611111111,
    "pop": 2741
  },
  {
    "nameAr": "Larkhill",
    "nameEn": "Larkhill",
    "type": "city",
    "lat": 51.198,
    "lng": -1.813,
    "pop": 2733
  },
  {
    "nameAr": "Herstmonceux",
    "nameEn": "Herstmonceux",
    "type": "city",
    "lat": 50.89,
    "lng": 0.32,
    "pop": 2711
  },
  {
    "nameAr": "West Wittering",
    "nameEn": "West Wittering",
    "type": "city",
    "lat": 50.780638888889,
    "lng": -0.89563888888889,
    "pop": 2700
  },
  {
    "nameAr": "Muir of Ord",
    "nameEn": "Muir of Ord",
    "type": "city",
    "lat": 57.52,
    "lng": -4.46,
    "pop": 2690
  },
  {
    "nameAr": "Ashington",
    "nameEn": "Ashington",
    "type": "city",
    "lat": 50.9337,
    "lng": -0.39109,
    "pop": 2688
  },
  {
    "nameAr": "Rock",
    "nameEn": "Rock",
    "type": "city",
    "lat": 52.338747222222,
    "lng": -2.3894416666667,
    "pop": 2672
  },
  {
    "nameAr": "Binley Woods",
    "nameEn": "Binley Woods",
    "type": "city",
    "lat": 52.394,
    "lng": -1.42,
    "pop": 2665
  },
  {
    "nameAr": "Fishbourne",
    "nameEn": "Fishbourne",
    "type": "city",
    "lat": 50.8354,
    "lng": -0.812,
    "pop": 2664
  },
  {
    "nameAr": "Biddenden",
    "nameEn": "Biddenden",
    "type": "city",
    "lat": 51.1139,
    "lng": 0.6441,
    "pop": 2661
  },
  {
    "nameAr": "Tatworth",
    "nameEn": "Tatworth",
    "type": "city",
    "lat": 50.845,
    "lng": -2.9601,
    "pop": 2660
  },
  {
    "nameAr": "غلن",
    "nameEn": "Gullane",
    "type": "city",
    "lat": 56.0371,
    "lng": -2.8265,
    "pop": 2650
  },
  {
    "nameAr": "St Teath",
    "nameEn": "St Teath",
    "type": "city",
    "lat": 50.593,
    "lng": -4.736,
    "pop": 2628
  },
  {
    "nameAr": "Witton Gilbert",
    "nameEn": "Witton Gilbert",
    "type": "city",
    "lat": 54.808,
    "lng": -1.635,
    "pop": 2617
  },
  {
    "nameAr": "Abersoch",
    "nameEn": "Abersoch",
    "type": "city",
    "lat": 52.8239,
    "lng": -4.5066,
    "pop": 2602
  },
  {
    "nameAr": "Ironbridge",
    "nameEn": "Ironbridge",
    "type": "city",
    "lat": 52.6278,
    "lng": -2.4854,
    "pop": 2582
  },
  {
    "nameAr": "Abbotts Ann",
    "nameEn": "Abbotts Ann",
    "type": "city",
    "lat": 51.191236111111,
    "lng": -1.5311111111111,
    "pop": 2566
  },
  {
    "nameAr": "Balmedie",
    "nameEn": "Balmedie",
    "type": "city",
    "lat": 57.25,
    "lng": -2.05,
    "pop": 2560
  },
  {
    "nameAr": "Briston",
    "nameEn": "Briston",
    "type": "city",
    "lat": 52.8534,
    "lng": 1.05945,
    "pop": 2547
  },
  {
    "nameAr": "اكلي",
    "nameEn": "Oakley",
    "type": "city",
    "lat": 52.171497222222,
    "lng": -0.52660555555556,
    "pop": 2510
  },
  {
    "nameAr": "Great Houghton",
    "nameEn": "Great Houghton",
    "type": "city",
    "lat": 53.55,
    "lng": -1.35,
    "pop": 2487
  },
  {
    "nameAr": "Aberporth",
    "nameEn": "Aberporth",
    "type": "city",
    "lat": 52.133333333333,
    "lng": -4.55,
    "pop": 2485
  },
  {
    "nameAr": "Donnington",
    "nameEn": "Donnington",
    "type": "city",
    "lat": 50.811738888889,
    "lng": -0.78796111111111,
    "pop": 2468
  },
  {
    "nameAr": "Rathfriland",
    "nameEn": "Rathfriland",
    "type": "city",
    "lat": 54.238,
    "lng": -6.161,
    "pop": 2467
  },
  {
    "nameAr": "برنوثن",
    "nameEn": "Perranuthnoe",
    "type": "city",
    "lat": 50.115,
    "lng": -5.445,
    "pop": 2463
  },
  {
    "nameAr": "Bodicote",
    "nameEn": "Bodicote",
    "type": "city",
    "lat": 52.036,
    "lng": -1.331,
    "pop": 2452
  },
  {
    "nameAr": "Roydon",
    "nameEn": "Roydon",
    "type": "city",
    "lat": 52.381,
    "lng": 1.081,
    "pop": 2450
  },
  {
    "nameAr": "Caldercruix",
    "nameEn": "Caldercruix",
    "type": "city",
    "lat": 55.89,
    "lng": -3.88,
    "pop": 2450
  },
  {
    "nameAr": "Banknock",
    "nameEn": "Banknock",
    "type": "city",
    "lat": 55.9875,
    "lng": -3.9523611111111,
    "pop": 2440
  },
  {
    "nameAr": "Leven",
    "nameEn": "Leven",
    "type": "city",
    "lat": 53.891194444444,
    "lng": -0.31857222222222,
    "pop": 2433
  },
  {
    "nameAr": "Wemyss Bay",
    "nameEn": "Wemyss Bay",
    "type": "city",
    "lat": 55.884,
    "lng": -4.887,
    "pop": 2430
  },
  {
    "nameAr": "Maple Cross",
    "nameEn": "Maple Cross",
    "type": "city",
    "lat": 51.625,
    "lng": -0.508,
    "pop": 2426
  },
  {
    "nameAr": "Swanton Morley",
    "nameEn": "Swanton Morley",
    "type": "city",
    "lat": 52.708638888889,
    "lng": 0.98131111111111,
    "pop": 2415
  },
  {
    "nameAr": "Ballymaguigan",
    "nameEn": "Ballymaguigan",
    "type": "city",
    "lat": 54.7399,
    "lng": -6.52481,
    "pop": 2408
  },
  {
    "nameAr": "Cairneyhill",
    "nameEn": "Cairneyhill",
    "type": "city",
    "lat": 56.059722,
    "lng": -3.534722,
    "pop": 2400
  },
  {
    "nameAr": "Alyth",
    "nameEn": "Alyth",
    "type": "city",
    "lat": 56.623144444444,
    "lng": -3.2320416666667,
    "pop": 2400
  },
  {
    "nameAr": "Mellor",
    "nameEn": "Mellor",
    "type": "city",
    "lat": 53.3969,
    "lng": -2.02853,
    "pop": 2394
  },
  {
    "nameAr": "ويمبلينغتون",
    "nameEn": "Wimblington",
    "type": "city",
    "lat": 52.5,
    "lng": 0.08,
    "pop": 2372
  },
  {
    "nameAr": "Winford",
    "nameEn": "Winford",
    "type": "city",
    "lat": 51.383,
    "lng": -2.6603,
    "pop": 2369
  },
  {
    "nameAr": "Coleford",
    "nameEn": "Coleford",
    "type": "city",
    "lat": 51.2442,
    "lng": -2.4519,
    "pop": 2368
  },
  {
    "nameAr": "Gedney",
    "nameEn": "Gedney",
    "type": "city",
    "lat": 52.7978,
    "lng": 0.0798,
    "pop": 2351
  },
  {
    "nameAr": "Billinghay",
    "nameEn": "Billinghay",
    "type": "city",
    "lat": 53.0792,
    "lng": -0.28109,
    "pop": 2350
  },
  {
    "nameAr": "Ramsey",
    "nameEn": "Ramsey",
    "type": "city",
    "lat": 51.928,
    "lng": 1.217,
    "pop": 2343
  },
  {
    "nameAr": "Arnside",
    "nameEn": "Arnside",
    "type": "city",
    "lat": 54.199,
    "lng": -2.832,
    "pop": 2334
  },
  {
    "nameAr": "هارلينغتون",
    "nameEn": "Harlington",
    "type": "city",
    "lat": 51.963355555556,
    "lng": -0.49500555555556,
    "pop": 2322
  },
  {
    "nameAr": "Millisle",
    "nameEn": "Millisle",
    "type": "city",
    "lat": 54.608,
    "lng": -5.529,
    "pop": 2318
  },
  {
    "nameAr": "Polbeth",
    "nameEn": "Polbeth",
    "type": "city",
    "lat": 55.8593,
    "lng": -3.5544,
    "pop": 2310
  },
  {
    "nameAr": "فرندن",
    "nameEn": "Farndon",
    "type": "city",
    "lat": 53.085188888889,
    "lng": -2.8781,
    "pop": 2303
  },
  {
    "nameAr": "شرنبروك",
    "nameEn": "Sharnbrook",
    "type": "city",
    "lat": 52.2166,
    "lng": -0.5333,
    "pop": 2293
  },
  {
    "nameAr": "Bardney",
    "nameEn": "Bardney",
    "type": "city",
    "lat": 53.211,
    "lng": -0.324362,
    "pop": 2284
  },
  {
    "nameAr": "Wye",
    "nameEn": "Wye",
    "type": "city",
    "lat": 51.1815,
    "lng": 0.9413,
    "pop": 2282
  },
  {
    "nameAr": "Catterall",
    "nameEn": "Catterall",
    "type": "city",
    "lat": 53.8798,
    "lng": -2.7631,
    "pop": 2280
  },
  {
    "nameAr": "Credenhill",
    "nameEn": "Credenhill",
    "type": "city",
    "lat": 52.0889,
    "lng": -2.80123,
    "pop": 2271
  },
  {
    "nameAr": "Rothbury",
    "nameEn": "Rothbury",
    "type": "city",
    "lat": 55.3097,
    "lng": -1.9109,
    "pop": 2263
  },
  {
    "nameAr": "Hutton Cranswick",
    "nameEn": "Hutton Cranswick",
    "type": "city",
    "lat": 53.958613888889,
    "lng": -0.44214166666667,
    "pop": 2244
  },
  {
    "nameAr": "Glenmavis",
    "nameEn": "Glenmavis",
    "type": "city",
    "lat": 55.8853,
    "lng": -3.9983,
    "pop": 2240
  },
  {
    "nameAr": "Northiam",
    "nameEn": "Northiam",
    "type": "city",
    "lat": 50.99,
    "lng": 0.6,
    "pop": 2235
  },
  {
    "nameAr": "سانت ايو",
    "nameEn": "St Ive",
    "type": "city",
    "lat": 50.48,
    "lng": -4.382,
    "pop": 2231
  },
  {
    "nameAr": "Ardboe",
    "nameEn": "Ardboe",
    "type": "city",
    "lat": 54.623,
    "lng": -6.514,
    "pop": 2221
  },
  {
    "nameAr": "Johnston",
    "nameEn": "Johnston",
    "type": "city",
    "lat": 51.754,
    "lng": -4.9976,
    "pop": 2218
  },
  {
    "nameAr": "اسبلي غويس",
    "nameEn": "Aspley Guise",
    "type": "city",
    "lat": 52.0126,
    "lng": -0.6285,
    "pop": 2216
  },
  {
    "nameAr": "Gartcosh",
    "nameEn": "Gartcosh",
    "type": "city",
    "lat": 55.8881,
    "lng": -4.08222,
    "pop": 2200
  },
  {
    "nameAr": "Horrabridge",
    "nameEn": "Horrabridge",
    "type": "city",
    "lat": 50.5,
    "lng": -4.1,
    "pop": 2198
  },
  {
    "nameAr": "Much Hadham",
    "nameEn": "Much Hadham",
    "type": "city",
    "lat": 51.854,
    "lng": 0.072,
    "pop": 2195
  },
  {
    "nameAr": "Wickham",
    "nameEn": "Wickham",
    "type": "city",
    "lat": 50.9,
    "lng": -1.19,
    "pop": 2173
  },
  {
    "nameAr": "Huncote",
    "nameEn": "Huncote",
    "type": "city",
    "lat": 52.572,
    "lng": -1.238,
    "pop": 2169
  },
  {
    "nameAr": "نيوبورو",
    "nameEn": "Newborough",
    "type": "city",
    "lat": 53.164788888889,
    "lng": -4.359,
    "pop": 2169
  },
  {
    "nameAr": "Coylton",
    "nameEn": "Coylton",
    "type": "city",
    "lat": 55.4434,
    "lng": -4.51832,
    "pop": 2160
  },
  {
    "nameAr": "وستونينغ",
    "nameEn": "Westoning",
    "type": "city",
    "lat": 51.981830555556,
    "lng": -0.49640555555556,
    "pop": 2147
  },
  {
    "nameAr": "North Leigh",
    "nameEn": "North Leigh",
    "type": "city",
    "lat": 51.813,
    "lng": -1.44,
    "pop": 2127
  },
  {
    "nameAr": "Portavogie",
    "nameEn": "Portavogie",
    "type": "city",
    "lat": 54.462,
    "lng": -5.444,
    "pop": 2122
  },
  {
    "nameAr": "Charlton",
    "nameEn": "Charlton",
    "type": "city",
    "lat": 51.220525,
    "lng": -1.4983388888889,
    "pop": 2121
  },
  {
    "nameAr": "Honeybourne",
    "nameEn": "Honeybourne",
    "type": "city",
    "lat": 52.095,
    "lng": -1.831,
    "pop": 2116
  },
  {
    "nameAr": "Cardross",
    "nameEn": "Cardross",
    "type": "city",
    "lat": 55.9667,
    "lng": -4.63333,
    "pop": 2110
  },
  {
    "nameAr": "Catcliffe",
    "nameEn": "Catcliffe",
    "type": "city",
    "lat": 53.391630555556,
    "lng": -1.3624,
    "pop": 2108
  },
  {
    "nameAr": "Ballykelly",
    "nameEn": "Ballykelly",
    "type": "city",
    "lat": 55.0445,
    "lng": -7.01576,
    "pop": 2107
  },
  {
    "nameAr": "Ashurst",
    "nameEn": "Ashurst",
    "type": "city",
    "lat": 50.8948,
    "lng": -1.51669,
    "pop": 2093
  },
  {
    "nameAr": "Wylam",
    "nameEn": "Wylam",
    "type": "city",
    "lat": 54.974,
    "lng": -1.821,
    "pop": 2087
  },
  {
    "nameAr": "شيلينغتون",
    "nameEn": "Shillington",
    "type": "city",
    "lat": 51.993205,
    "lng": -0.362063,
    "pop": 2077
  },
  {
    "nameAr": "سترتهام",
    "nameEn": "Stretham",
    "type": "city",
    "lat": 52.35,
    "lng": 0.22,
    "pop": 2070
  },
  {
    "nameAr": "Raglan",
    "nameEn": "Raglan",
    "type": "city",
    "lat": 51.7649,
    "lng": -2.85,
    "pop": 2069
  },
  {
    "nameAr": "Bozeat",
    "nameEn": "Bozeat",
    "type": "city",
    "lat": 52.2173,
    "lng": -0.6621,
    "pop": 2062
  },
  {
    "nameAr": "Edgmond",
    "nameEn": "Edgmond",
    "type": "city",
    "lat": 52.7667,
    "lng": -2.41667,
    "pop": 2062
  },
  {
    "nameAr": "Skelmorlie",
    "nameEn": "Skelmorlie",
    "type": "city",
    "lat": 55.86922,
    "lng": -4.88626,
    "pop": 2060
  },
  {
    "nameAr": "Axbridge",
    "nameEn": "Axbridge",
    "type": "city",
    "lat": 51.287,
    "lng": -2.815,
    "pop": 2057
  },
  {
    "nameAr": "Slinfold",
    "nameEn": "Slinfold",
    "type": "city",
    "lat": 51.07,
    "lng": -0.405,
    "pop": 2055
  },
  {
    "nameAr": "Magheralin",
    "nameEn": "Magheralin",
    "type": "city",
    "lat": 54.4667,
    "lng": -6.26667,
    "pop": 2041
  },
  {
    "nameAr": "Barnt Green",
    "nameEn": "Barnt Green",
    "type": "city",
    "lat": 52.36,
    "lng": -1.999,
    "pop": 2037
  },
  {
    "nameAr": "Sibsey",
    "nameEn": "Sibsey",
    "type": "city",
    "lat": 53.0371,
    "lng": 0.016272,
    "pop": 2033
  },
  {
    "nameAr": "Ballywalter",
    "nameEn": "Ballywalter",
    "type": "city",
    "lat": 54.542,
    "lng": -5.48,
    "pop": 2027
  },
  {
    "nameAr": "Berkswich",
    "nameEn": "Berkswich",
    "type": "city",
    "lat": 52.788611111111,
    "lng": -2.0708333333333,
    "pop": 2010
  },
  {
    "nameAr": "Boldre",
    "nameEn": "Boldre",
    "type": "city",
    "lat": 50.7821,
    "lng": -1.5533,
    "pop": 2003
  },
  {
    "nameAr": "Strathblane",
    "nameEn": "Strathblane",
    "type": "city",
    "lat": 55.9865,
    "lng": -4.30613,
    "pop": 1990
  },
  {
    "nameAr": "Conon Bridge",
    "nameEn": "Conon Bridge",
    "type": "city",
    "lat": 57.5667,
    "lng": -4.43333,
    "pop": 1990
  },
  {
    "nameAr": "Ramsbury",
    "nameEn": "Ramsbury",
    "type": "city",
    "lat": 51.442,
    "lng": -1.606,
    "pop": 1989
  },
  {
    "nameAr": "Kirknewton",
    "nameEn": "Kirknewton",
    "type": "city",
    "lat": 55.887658333333,
    "lng": -3.4191944444444,
    "pop": 1980
  },
  {
    "nameAr": "Stoneyburn",
    "nameEn": "Stoneyburn",
    "type": "city",
    "lat": 55.848,
    "lng": -3.631,
    "pop": 1980
  },
  {
    "nameAr": "Ashwell",
    "nameEn": "Ashwell",
    "type": "city",
    "lat": 52.042169444444,
    "lng": -0.15698888888889,
    "pop": 1980
  },
  {
    "nameAr": "بلين",
    "nameEn": "Plean",
    "type": "city",
    "lat": 56.05,
    "lng": -3.86667,
    "pop": 1980
  },
  {
    "nameAr": "Rhu",
    "nameEn": "Rhu",
    "type": "city",
    "lat": 56.0219,
    "lng": -4.78417,
    "pop": 1970
  },
  {
    "nameAr": "ريتندون",
    "nameEn": "Rettendon",
    "type": "city",
    "lat": 51.654402777778,
    "lng": 0.54966111111111,
    "pop": 1967
  },
  {
    "nameAr": "روفنسدن",
    "nameEn": "Ravensden",
    "type": "city",
    "lat": 52.178152777778,
    "lng": -0.42515555555556,
    "pop": 1961
  },
  {
    "nameAr": "Capel-le-Ferne",
    "nameEn": "Capel-le-Ferne",
    "type": "city",
    "lat": 51.1037,
    "lng": 1.2016,
    "pop": 1961
  },
  {
    "nameAr": "North Sunderland",
    "nameEn": "North Sunderland",
    "type": "city",
    "lat": 55.577,
    "lng": -1.66,
    "pop": 1959
  },
  {
    "nameAr": "Ratho",
    "nameEn": "Ratho",
    "type": "city",
    "lat": 55.921666666667,
    "lng": -3.3802777777778,
    "pop": 1950
  },
  {
    "nameAr": "ساوث ليتلتون",
    "nameEn": "South Littleton",
    "type": "city",
    "lat": 52.114,
    "lng": -1.89,
    "pop": 1943
  },
  {
    "nameAr": "Stanwick",
    "nameEn": "Stanwick",
    "type": "city",
    "lat": 52.3286,
    "lng": -0.5631,
    "pop": 1942
  },
  {
    "nameAr": "Wolvey",
    "nameEn": "Wolvey",
    "type": "city",
    "lat": 52.486613888889,
    "lng": -1.3692972222222,
    "pop": 1942
  },
  {
    "nameAr": "Airth",
    "nameEn": "Airth",
    "type": "city",
    "lat": 56.068533,
    "lng": -3.770164,
    "pop": 1940
  },
  {
    "nameAr": "Ardingly",
    "nameEn": "Ardingly",
    "type": "city",
    "lat": 51.048,
    "lng": -0.078,
    "pop": 1936
  },
  {
    "nameAr": "Tockwith",
    "nameEn": "Tockwith",
    "type": "city",
    "lat": 53.9651,
    "lng": -1.2869,
    "pop": 1935
  },
  {
    "nameAr": "Sarratt",
    "nameEn": "Sarratt",
    "type": "city",
    "lat": 51.683602777778,
    "lng": -0.48752222222222,
    "pop": 1932
  },
  {
    "nameAr": "Burbage",
    "nameEn": "Burbage",
    "type": "city",
    "lat": 51.349,
    "lng": -1.671,
    "pop": 1931
  },
  {
    "nameAr": "Lavenham",
    "nameEn": "Lavenham",
    "type": "city",
    "lat": 52.1076,
    "lng": 0.79543888888889,
    "pop": 1922
  },
  {
    "nameAr": "Comrie",
    "nameEn": "Comrie",
    "type": "city",
    "lat": 56.3749,
    "lng": -3.98825,
    "pop": 1920
  },
  {
    "nameAr": "Lhanbryde",
    "nameEn": "Lhanbryde",
    "type": "city",
    "lat": 57.6333,
    "lng": -3.21667,
    "pop": 1920
  },
  {
    "nameAr": "سيون ميلز",
    "nameEn": "Sion Mills",
    "type": "city",
    "lat": 54.7854,
    "lng": -7.47427,
    "pop": 1907
  },
  {
    "nameAr": "Kinglassie",
    "nameEn": "Kinglassie",
    "type": "city",
    "lat": 56.166666666667,
    "lng": -3.2333333333333,
    "pop": 1900
  },
  {
    "nameAr": "Tarbolton",
    "nameEn": "Tarbolton",
    "type": "city",
    "lat": 55.5132,
    "lng": -4.4866,
    "pop": 1900
  },
  {
    "nameAr": "تشدينغتون",
    "nameEn": "Cheddington",
    "type": "city",
    "lat": 51.847,
    "lng": -0.664,
    "pop": 1896
  },
  {
    "nameAr": "Harthill",
    "nameEn": "Harthill",
    "type": "city",
    "lat": 53.3195,
    "lng": -1.2583,
    "pop": 1879
  },
  {
    "nameAr": "نيوتون لنغويل",
    "nameEn": "Newton Longville",
    "type": "city",
    "lat": 51.975,
    "lng": -0.771,
    "pop": 1874
  },
  {
    "nameAr": "فركت",
    "nameEn": "Farcet",
    "type": "city",
    "lat": 52.53,
    "lng": -0.23,
    "pop": 1867
  },
  {
    "nameAr": "ستريتلي",
    "nameEn": "Streatley",
    "type": "city",
    "lat": 51.948,
    "lng": -0.44,
    "pop": 1867
  },
  {
    "nameAr": "Tideswell",
    "nameEn": "Tideswell",
    "type": "city",
    "lat": 53.273,
    "lng": -1.774,
    "pop": 1864
  },
  {
    "nameAr": "Bathford",
    "nameEn": "Bathford",
    "type": "city",
    "lat": 51.3994,
    "lng": -2.3042,
    "pop": 1864
  },
  {
    "nameAr": "Wragby",
    "nameEn": "Wragby",
    "type": "city",
    "lat": 53.2873,
    "lng": -0.302601,
    "pop": 1861
  },
  {
    "nameAr": "Windygates",
    "nameEn": "Windygates",
    "type": "city",
    "lat": 56.1927,
    "lng": -3.05441,
    "pop": 1860
  },
  {
    "nameAr": "تريرددور",
    "nameEn": "Trearddur",
    "type": "city",
    "lat": 53.283,
    "lng": -4.617,
    "pop": 1858
  },
  {
    "nameAr": "لينموث",
    "nameEn": "Lynemouth",
    "type": "city",
    "lat": 55.2172,
    "lng": -1.5354,
    "pop": 1858
  },
  {
    "nameAr": "Finningley",
    "nameEn": "Finningley",
    "type": "city",
    "lat": 53.483,
    "lng": -0.983,
    "pop": 1854
  },
  {
    "nameAr": "Barnetby le Wold",
    "nameEn": "Barnetby le Wold",
    "type": "city",
    "lat": 53.5779,
    "lng": -0.4071,
    "pop": 1842
  },
  {
    "nameAr": "St David's and the Cathedral Close",
    "nameEn": "St David's and the Cathedral Close",
    "type": "city",
    "lat": 51.89045,
    "lng": -5.29702,
    "pop": 1841
  },
  {
    "nameAr": "Dunkeswell",
    "nameEn": "Dunkeswell",
    "type": "city",
    "lat": 50.863333333333,
    "lng": -3.2213888888889,
    "pop": 1835
  },
  {
    "nameAr": "كلفيل",
    "nameEn": "Clophill",
    "type": "city",
    "lat": 52.0273,
    "lng": -0.4248,
    "pop": 1829
  },
  {
    "nameAr": "Seighford",
    "nameEn": "Seighford",
    "type": "city",
    "lat": 52.816666666667,
    "lng": -2.1833333333333,
    "pop": 1828
  },
  {
    "nameAr": "تينتغل",
    "nameEn": "Tintagel",
    "type": "city",
    "lat": 50.663,
    "lng": -4.75,
    "pop": 1822
  },
  {
    "nameAr": "Griston",
    "nameEn": "Griston",
    "type": "city",
    "lat": 52.558,
    "lng": 0.8665,
    "pop": 1812
  },
  {
    "nameAr": "Invergowrie",
    "nameEn": "Invergowrie",
    "type": "city",
    "lat": 56.4603,
    "lng": -3.06124,
    "pop": 1810
  },
  {
    "nameAr": "Seahouses",
    "nameEn": "Seahouses",
    "type": "city",
    "lat": 55.583,
    "lng": -1.655,
    "pop": 1803
  },
  {
    "nameAr": "Woodsetts",
    "nameEn": "Woodsetts",
    "type": "city",
    "lat": 53.35,
    "lng": -1.1667,
    "pop": 1802
  },
  {
    "nameAr": "Chipperfield",
    "nameEn": "Chipperfield",
    "type": "city",
    "lat": 51.7039,
    "lng": -0.4906,
    "pop": 1800
  },
  {
    "nameAr": "Howwood",
    "nameEn": "Howwood",
    "type": "city",
    "lat": 55.809,
    "lng": -4.558,
    "pop": 1798
  },
  {
    "nameAr": "Tetney",
    "nameEn": "Tetney",
    "type": "city",
    "lat": 53.489,
    "lng": -0.019,
    "pop": 1782
  },
  {
    "nameAr": "Annalong",
    "nameEn": "Annalong",
    "type": "city",
    "lat": 54.108,
    "lng": -5.901,
    "pop": 1778
  },
  {
    "nameAr": "North Curry",
    "nameEn": "North Curry",
    "type": "city",
    "lat": 51.0248,
    "lng": -2.9638,
    "pop": 1773
  },
  {
    "nameAr": "Warkworth",
    "nameEn": "Warkworth",
    "type": "city",
    "lat": 55.345,
    "lng": -1.611,
    "pop": 1772
  },
  {
    "nameAr": "Hathersage",
    "nameEn": "Hathersage",
    "type": "city",
    "lat": 53.33,
    "lng": -1.658,
    "pop": 1769
  },
  {
    "nameAr": "Doveridge",
    "nameEn": "Doveridge",
    "type": "city",
    "lat": 52.9042,
    "lng": -1.8244,
    "pop": 1760
  },
  {
    "nameAr": "سانت ديفيدز",
    "nameEn": "St Davids",
    "type": "city",
    "lat": 51.882222222222,
    "lng": -5.2686111111111,
    "pop": 1751
  },
  {
    "nameAr": "Salford Priors",
    "nameEn": "Salford Priors",
    "type": "city",
    "lat": 52.15,
    "lng": -1.88333333,
    "pop": 1744
  },
  {
    "nameAr": "Portsoy",
    "nameEn": "Portsoy",
    "type": "city",
    "lat": 57.683,
    "lng": -2.688,
    "pop": 1740
  },
  {
    "nameAr": "كلافرلي",
    "nameEn": "Claverley",
    "type": "city",
    "lat": 52.538,
    "lng": -2.306,
    "pop": 1737
  },
  {
    "nameAr": "Fochabers",
    "nameEn": "Fochabers",
    "type": "city",
    "lat": 57.6122,
    "lng": -3.09711,
    "pop": 1720
  },
  {
    "nameAr": "East Coker",
    "nameEn": "East Coker",
    "type": "city",
    "lat": 50.9101,
    "lng": -2.6485,
    "pop": 1718
  },
  {
    "nameAr": "Oving",
    "nameEn": "Oving",
    "type": "city",
    "lat": 50.837188888889,
    "lng": -0.72093055555556,
    "pop": 1715
  },
  {
    "nameAr": "Hilltown",
    "nameEn": "Hilltown",
    "type": "city",
    "lat": 54.194,
    "lng": -6.144,
    "pop": 1709
  },
  {
    "nameAr": "Crockenhill",
    "nameEn": "Crockenhill",
    "type": "city",
    "lat": 51.383,
    "lng": 0.162,
    "pop": 1706
  },
  {
    "nameAr": "Donaghcloney",
    "nameEn": "Donaghcloney",
    "type": "city",
    "lat": 54.42,
    "lng": -6.26032,
    "pop": 1701
  },
  {
    "nameAr": "West Linton",
    "nameEn": "West Linton",
    "type": "city",
    "lat": 55.7526,
    "lng": -3.3554,
    "pop": 1700
  },
  {
    "nameAr": "Hopeman",
    "nameEn": "Hopeman",
    "type": "city",
    "lat": 57.706716,
    "lng": -3.434245,
    "pop": 1700
  },
  {
    "nameAr": "Winkleigh",
    "nameEn": "Winkleigh",
    "type": "city",
    "lat": 50.85,
    "lng": -3.95,
    "pop": 1697
  },
  {
    "nameAr": "Woodhouse Eaves",
    "nameEn": "Woodhouse Eaves",
    "type": "city",
    "lat": 52.7223,
    "lng": -1.2188,
    "pop": 1693
  },
  {
    "nameAr": "Fairlight",
    "nameEn": "Fairlight",
    "type": "city",
    "lat": 50.88,
    "lng": 0.65,
    "pop": 1693
  },
  {
    "nameAr": "هررلد",
    "nameEn": "Harrold",
    "type": "city",
    "lat": 52.2,
    "lng": -0.61,
    "pop": 1691
  },
  {
    "nameAr": "Killearn",
    "nameEn": "Killearn",
    "type": "city",
    "lat": 56.042,
    "lng": -4.368,
    "pop": 1690
  },
  {
    "nameAr": "Coddington",
    "nameEn": "Coddington",
    "type": "city",
    "lat": 53.08,
    "lng": -0.75,
    "pop": 1684
  },
  {
    "nameAr": "Greens Norton",
    "nameEn": "Greens Norton",
    "type": "city",
    "lat": 52.1433,
    "lng": -1.0238,
    "pop": 1677
  },
  {
    "nameAr": "Tilney St Lawrence",
    "nameEn": "Tilney St Lawrence",
    "type": "city",
    "lat": 52.7001,
    "lng": 0.29079,
    "pop": 1667
  },
  {
    "nameAr": "Todwick",
    "nameEn": "Todwick",
    "type": "city",
    "lat": 53.35,
    "lng": -1.26,
    "pop": 1663
  },
  {
    "nameAr": "Castleside",
    "nameEn": "Castleside",
    "type": "city",
    "lat": 54.833,
    "lng": -1.879,
    "pop": 1654
  },
  {
    "nameAr": "Orlestone",
    "nameEn": "Orlestone",
    "type": "city",
    "lat": 51.0656,
    "lng": 0.8626,
    "pop": 1649
  },
  {
    "nameAr": "Markethill",
    "nameEn": "Markethill",
    "type": "city",
    "lat": 54.2985,
    "lng": -6.5214,
    "pop": 1647
  },
  {
    "nameAr": "Cruden Bay",
    "nameEn": "Cruden Bay",
    "type": "city",
    "lat": 57.4173,
    "lng": -1.85248,
    "pop": 1640
  },
  {
    "nameAr": "Mortehoe",
    "nameEn": "Mortehoe",
    "type": "city",
    "lat": 51.183333333333,
    "lng": -4.2,
    "pop": 1637
  },
  {
    "nameAr": "Nether Heyford",
    "nameEn": "Nether Heyford",
    "type": "city",
    "lat": 52.220833333333,
    "lng": -1.0361111111111,
    "pop": 1637
  },
  {
    "nameAr": "Ardglass",
    "nameEn": "Ardglass",
    "type": "city",
    "lat": 54.253,
    "lng": -5.601,
    "pop": 1635
  },
  {
    "nameAr": "Stanhope",
    "nameEn": "Stanhope",
    "type": "city",
    "lat": 54.7471,
    "lng": -2.006,
    "pop": 1633
  },
  {
    "nameAr": "Digswell",
    "nameEn": "Digswell",
    "type": "city",
    "lat": 51.819,
    "lng": -0.198,
    "pop": 1632
  },
  {
    "nameAr": "Gotham",
    "nameEn": "Gotham",
    "type": "city",
    "lat": 52.869,
    "lng": -1.205,
    "pop": 1632
  },
  {
    "nameAr": "سنينغ",
    "nameEn": "Sonning",
    "type": "city",
    "lat": 51.473,
    "lng": -0.911,
    "pop": 1631
  },
  {
    "nameAr": "برتون نستون",
    "nameEn": "Burton",
    "type": "city",
    "lat": 53.26,
    "lng": -3.025,
    "pop": 1620
  },
  {
    "nameAr": "بلبريو",
    "nameEn": "Polperro",
    "type": "city",
    "lat": 50.3311,
    "lng": -4.5197,
    "pop": 1615
  },
  {
    "nameAr": "Ribchester",
    "nameEn": "Ribchester",
    "type": "city",
    "lat": 53.813,
    "lng": -2.5323,
    "pop": 1598
  },
  {
    "nameAr": "برتريث",
    "nameEn": "Portreath",
    "type": "city",
    "lat": 50.261,
    "lng": -5.288,
    "pop": 1595
  },
  {
    "nameAr": "Moneyreagh",
    "nameEn": "Moneyreagh",
    "type": "city",
    "lat": 54.5333,
    "lng": -5.83333,
    "pop": 1594
  },
  {
    "nameAr": "غونب",
    "nameEn": "Gwennap",
    "type": "city",
    "lat": 50.217,
    "lng": -5.171,
    "pop": 1592
  },
  {
    "nameAr": "Birchanger",
    "nameEn": "Birchanger",
    "type": "city",
    "lat": 51.8829,
    "lng": 0.1979,
    "pop": 1589
  },
  {
    "nameAr": "Salhouse",
    "nameEn": "Salhouse",
    "type": "city",
    "lat": 52.6708,
    "lng": 1.3965694444444,
    "pop": 1579
  },
  {
    "nameAr": "Cummersdale",
    "nameEn": "Cummersdale",
    "type": "city",
    "lat": 54.8698,
    "lng": -2.95203,
    "pop": 1570
  },
  {
    "nameAr": "Camblesforth",
    "nameEn": "Camblesforth",
    "type": "city",
    "lat": 53.730236111111,
    "lng": -1.0186611111111,
    "pop": 1568
  },
  {
    "nameAr": "Freeland",
    "nameEn": "Freeland",
    "type": "city",
    "lat": 51.814,
    "lng": -1.404,
    "pop": 1560
  },
  {
    "nameAr": "Broadclyst",
    "nameEn": "Broadclyst",
    "type": "city",
    "lat": 50.766666666667,
    "lng": -3.4333333333333,
    "pop": 1552
  },
  {
    "nameAr": "Haverigg",
    "nameEn": "Haverigg",
    "type": "city",
    "lat": 54.1972,
    "lng": -3.28906,
    "pop": 1546
  },
  {
    "nameAr": "Caersws",
    "nameEn": "Caersws",
    "type": "city",
    "lat": 52.5215,
    "lng": -3.42243,
    "pop": 1537
  },
  {
    "nameAr": "كرهرك",
    "nameEn": "Carharrack",
    "type": "city",
    "lat": 50.23,
    "lng": -5.182,
    "pop": 1537
  },
  {
    "nameAr": "Foulridge",
    "nameEn": "Foulridge",
    "type": "city",
    "lat": 53.866666666667,
    "lng": -2.1666666666667,
    "pop": 1535
  },
  {
    "nameAr": "Borth",
    "nameEn": "Borth",
    "type": "city",
    "lat": 52.485330555556,
    "lng": -4.0510305555556,
    "pop": 1523
  },
  {
    "nameAr": "Sevington",
    "nameEn": "Sevington",
    "type": "city",
    "lat": 51.128,
    "lng": 0.908,
    "pop": 1522
  },
  {
    "nameAr": "كنسورته",
    "nameEn": "Kensworth",
    "type": "city",
    "lat": 51.85,
    "lng": -0.5,
    "pop": 1517
  },
  {
    "nameAr": "Hellifield",
    "nameEn": "Hellifield",
    "type": "city",
    "lat": 54.0045,
    "lng": -2.2215,
    "pop": 1515
  },
  {
    "nameAr": "Coltishall",
    "nameEn": "Coltishall",
    "type": "city",
    "lat": 52.7281,
    "lng": 1.3618888888889,
    "pop": 1503
  },
  {
    "nameAr": "West Lavington",
    "nameEn": "West Lavington",
    "type": "city",
    "lat": 51.274,
    "lng": -1.991,
    "pop": 1502
  },
  {
    "nameAr": "Kinloss",
    "nameEn": "Kinloss",
    "type": "city",
    "lat": 57.6337,
    "lng": -3.56756,
    "pop": 1500
  },
  {
    "nameAr": "Hurst Green",
    "nameEn": "Hurst Green",
    "type": "city",
    "lat": 51.02,
    "lng": 0.47,
    "pop": 1497
  },
  {
    "nameAr": "Ferrybridge",
    "nameEn": "Ferrybridge",
    "type": "city",
    "lat": 53.714,
    "lng": -1.281,
    "pop": 1491
  },
  {
    "nameAr": "سترتون وررينغتون",
    "nameEn": "Stretton",
    "type": "city",
    "lat": 53.3381,
    "lng": -2.5775,
    "pop": 1485
  },
  {
    "nameAr": "Forton",
    "nameEn": "Forton",
    "type": "city",
    "lat": 53.9549,
    "lng": -2.7815,
    "pop": 1483
  },
  {
    "nameAr": "Stradbroke",
    "nameEn": "Stradbroke",
    "type": "city",
    "lat": 52.318,
    "lng": 1.274,
    "pop": 1478
  },
  {
    "nameAr": "Wentworth",
    "nameEn": "Wentworth",
    "type": "city",
    "lat": 53.482,
    "lng": -1.419,
    "pop": 1478
  },
  {
    "nameAr": "ليدلينغتون",
    "nameEn": "Lidlington",
    "type": "city",
    "lat": 52.040588888889,
    "lng": -0.55948055555556,
    "pop": 1477
  },
  {
    "nameAr": "Woodford",
    "nameEn": "Woodford",
    "type": "city",
    "lat": 52.3815,
    "lng": -0.5819,
    "pop": 1474
  },
  {
    "nameAr": "Honington",
    "nameEn": "Honington",
    "type": "city",
    "lat": 52.336188888889,
    "lng": 0.8035,
    "pop": 1472
  },
  {
    "nameAr": "Kingstone",
    "nameEn": "Kingstone",
    "type": "city",
    "lat": 52.015555555556,
    "lng": -2.8416666666667,
    "pop": 1470
  },
  {
    "nameAr": "Stebbing",
    "nameEn": "Stebbing",
    "type": "city",
    "lat": 51.8956,
    "lng": 0.4095,
    "pop": 1465
  },
  {
    "nameAr": "Abernethy",
    "nameEn": "Abernethy",
    "type": "city",
    "lat": 56.326491666667,
    "lng": -3.3109277777778,
    "pop": 1460
  },
  {
    "nameAr": "Inchture",
    "nameEn": "Inchture",
    "type": "city",
    "lat": 56.4459,
    "lng": -3.1679,
    "pop": 1460
  },
  {
    "nameAr": "Flore",
    "nameEn": "Flore",
    "type": "city",
    "lat": 52.2388,
    "lng": -1.0569,
    "pop": 1452
  },
  {
    "nameAr": "هيث اند ريتش",
    "nameEn": "Heath and Reach",
    "type": "city",
    "lat": 51.943,
    "lng": -0.6555,
    "pop": 1451
  },
  {
    "nameAr": "همبلدن",
    "nameEn": "Hambleden",
    "type": "city",
    "lat": 51.571877777778,
    "lng": -0.86789722222222,
    "pop": 1445
  },
  {
    "nameAr": "Chirnside",
    "nameEn": "Chirnside",
    "type": "city",
    "lat": 55.8021,
    "lng": -2.209,
    "pop": 1440
  },
  {
    "nameAr": "Pittenweem",
    "nameEn": "Pittenweem",
    "type": "city",
    "lat": 56.213055555556,
    "lng": -2.7286111111111,
    "pop": 1440
  },
  {
    "nameAr": "Pitmedden",
    "nameEn": "Pitmedden",
    "type": "city",
    "lat": 57.336937,
    "lng": -2.180279,
    "pop": 1440
  },
  {
    "nameAr": "Beetley",
    "nameEn": "Beetley",
    "type": "city",
    "lat": 52.7167,
    "lng": 0.9167,
    "pop": 1436
  },
  {
    "nameAr": "Belford",
    "nameEn": "Belford",
    "type": "city",
    "lat": 55.598,
    "lng": -1.828,
    "pop": 1432
  },
  {
    "nameAr": "لوندن",
    "nameEn": "Lavendon",
    "type": "city",
    "lat": 52.172,
    "lng": -0.663,
    "pop": 1431
  },
  {
    "nameAr": "Almondbank",
    "nameEn": "Almondbank",
    "type": "city",
    "lat": 56.421,
    "lng": -3.517,
    "pop": 1430
  },
  {
    "nameAr": "Muirkirk",
    "nameEn": "Muirkirk",
    "type": "city",
    "lat": 55.523393,
    "lng": -4.064076,
    "pop": 1420
  },
  {
    "nameAr": "Sutton on Trent",
    "nameEn": "Sutton on Trent",
    "type": "city",
    "lat": 53.18,
    "lng": -0.82,
    "pop": 1417
  },
  {
    "nameAr": "حالتون",
    "nameEn": "Halton",
    "type": "city",
    "lat": 51.783069444444,
    "lng": -0.73388055555556,
    "pop": 1417
  },
  {
    "nameAr": "Kilcoo",
    "nameEn": "Kilcoo",
    "type": "city",
    "lat": 54.2167,
    "lng": -6.03333,
    "pop": 1415
  },
  {
    "nameAr": "سانت بورين",
    "nameEn": "St Buryan",
    "type": "city",
    "lat": 50.075,
    "lng": -5.621,
    "pop": 1412
  },
  {
    "nameAr": "Carnwath",
    "nameEn": "Carnwath",
    "type": "city",
    "lat": 55.7006,
    "lng": -3.625,
    "pop": 1410
  },
  {
    "nameAr": "Limekilns",
    "nameEn": "Limekilns",
    "type": "city",
    "lat": 56.0333,
    "lng": -3.46667,
    "pop": 1410
  },
  {
    "nameAr": "Torphins",
    "nameEn": "Torphins",
    "type": "city",
    "lat": 57.105,
    "lng": -2.62278,
    "pop": 1410
  },
  {
    "nameAr": "Bentley",
    "nameEn": "Bentley",
    "type": "city",
    "lat": 51.194011111111,
    "lng": -0.87756111111111,
    "pop": 1404
  },
  {
    "nameAr": "Doagh",
    "nameEn": "Doagh",
    "type": "city",
    "lat": 54.738,
    "lng": -6.042,
    "pop": 1404
  },
  {
    "nameAr": "بلونهم",
    "nameEn": "Blunham",
    "type": "city",
    "lat": 52.147,
    "lng": -0.322,
    "pop": 1402
  },
  {
    "nameAr": "Langham",
    "nameEn": "Langham",
    "type": "city",
    "lat": 52.695,
    "lng": -0.75,
    "pop": 1400
  },
  {
    "nameAr": "Rowde",
    "nameEn": "Rowde",
    "type": "city",
    "lat": 51.36,
    "lng": -2.03,
    "pop": 1394
  },
  {
    "nameAr": "Startforth",
    "nameEn": "Startforth",
    "type": "city",
    "lat": 54.540730555556,
    "lng": -1.9381194444444,
    "pop": 1391
  },
  {
    "nameAr": "Barnham",
    "nameEn": "Barnham",
    "type": "city",
    "lat": 50.831088888889,
    "lng": -0.63823888888889,
    "pop": 1391
  },
  {
    "nameAr": "Helen's Bay",
    "nameEn": "Helen's Bay",
    "type": "city",
    "lat": 54.67,
    "lng": -5.735,
    "pop": 1390
  },
  {
    "nameAr": "Beer",
    "nameEn": "Beer",
    "type": "city",
    "lat": 50.698,
    "lng": -3.093,
    "pop": 1381
  },
  {
    "nameAr": "Scole",
    "nameEn": "Scole",
    "type": "city",
    "lat": 52.366161111111,
    "lng": 1.1561611111111,
    "pop": 1374
  },
  {
    "nameAr": "Combe St Nicholas",
    "nameEn": "Combe St Nicholas",
    "type": "city",
    "lat": 50.8957,
    "lng": -2.9936,
    "pop": 1373
  },
  {
    "nameAr": "Happisburgh",
    "nameEn": "Happisburgh",
    "type": "city",
    "lat": 52.8242,
    "lng": 1.5309,
    "pop": 1372
  },
  {
    "nameAr": "Arne",
    "nameEn": "Arne",
    "type": "city",
    "lat": 50.692761111111,
    "lng": -2.0402111111111,
    "pop": 1361
  },
  {
    "nameAr": "Fornham St Martin",
    "nameEn": "Fornham St Martin",
    "type": "city",
    "lat": 52.272,
    "lng": 0.714,
    "pop": 1361
  },
  {
    "nameAr": "كيمبلتون",
    "nameEn": "Kimbolton",
    "type": "city",
    "lat": 52.3,
    "lng": -0.38,
    "pop": 1357
  },
  {
    "nameAr": "Harberton",
    "nameEn": "Harberton",
    "type": "city",
    "lat": 50.4136,
    "lng": -3.7217,
    "pop": 1355
  },
  {
    "nameAr": "Abererch",
    "nameEn": "Abererch",
    "type": "city",
    "lat": 52.902,
    "lng": -4.386,
    "pop": 1354
  },
  {
    "nameAr": "Charmouth",
    "nameEn": "Charmouth",
    "type": "city",
    "lat": 50.733,
    "lng": -2.9,
    "pop": 1352
  },
  {
    "nameAr": "Netherbury",
    "nameEn": "Netherbury",
    "type": "city",
    "lat": 50.791,
    "lng": -2.75,
    "pop": 1351
  },
  {
    "nameAr": "Yardley Gobion",
    "nameEn": "Yardley Gobion",
    "type": "city",
    "lat": 52.095780555556,
    "lng": -0.88318055555556,
    "pop": 1348
  },
  {
    "nameAr": "Clavering",
    "nameEn": "Clavering",
    "type": "city",
    "lat": 51.965,
    "lng": 0.145,
    "pop": 1345
  },
  {
    "nameAr": "Ampleforth",
    "nameEn": "Ampleforth",
    "type": "city",
    "lat": 54.201,
    "lng": -1.107,
    "pop": 1345
  },
  {
    "nameAr": "Tonge",
    "nameEn": "Tonge",
    "type": "city",
    "lat": 51.351944444444,
    "lng": 0.78083333333333,
    "pop": 1344
  },
  {
    "nameAr": "بونبوري",
    "nameEn": "Bunbury",
    "type": "city",
    "lat": 53.118,
    "lng": -2.645,
    "pop": 1342
  },
  {
    "nameAr": "Bellingham",
    "nameEn": "Bellingham",
    "type": "city",
    "lat": 55.145,
    "lng": -2.254,
    "pop": 1334
  },
  {
    "nameAr": "Kingsbury Episcopi",
    "nameEn": "Kingsbury Episcopi",
    "type": "city",
    "lat": 50.9852,
    "lng": -2.8088,
    "pop": 1333
  },
  {
    "nameAr": "Rodney Stoke",
    "nameEn": "Rodney Stoke",
    "type": "city",
    "lat": 51.2476,
    "lng": -2.7357,
    "pop": 1331
  },
  {
    "nameAr": "تينغويك",
    "nameEn": "Tingewick",
    "type": "city",
    "lat": 51.99,
    "lng": -1.044,
    "pop": 1327
  },
  {
    "nameAr": "سلبورن",
    "nameEn": "Selborne",
    "type": "city",
    "lat": 51.097,
    "lng": -0.942,
    "pop": 1327
  },
  {
    "nameAr": "Wrenbury-cum-Frith",
    "nameEn": "Wrenbury-cum-Frith",
    "type": "city",
    "lat": 53.024,
    "lng": -2.603,
    "pop": 1320
  },
  {
    "nameAr": "ريسلي",
    "nameEn": "Riseley",
    "type": "city",
    "lat": 52.2514,
    "lng": -0.4769,
    "pop": 1319
  },
  {
    "nameAr": "Farmborough",
    "nameEn": "Farmborough",
    "type": "city",
    "lat": 51.343,
    "lng": -2.4844,
    "pop": 1312
  },
  {
    "nameAr": "Hevingham",
    "nameEn": "Hevingham",
    "type": "city",
    "lat": 52.743819444444,
    "lng": 1.2629111111111,
    "pop": 1308
  },
  {
    "nameAr": "Bow",
    "nameEn": "Bow",
    "type": "city",
    "lat": 50.7841,
    "lng": -3.81577,
    "pop": 1302
  },
  {
    "nameAr": "East Whitburn",
    "nameEn": "East Whitburn",
    "type": "city",
    "lat": 55.8685,
    "lng": -3.65931,
    "pop": 1300
  },
  {
    "nameAr": "St Briavels",
    "nameEn": "St Briavels",
    "type": "city",
    "lat": 51.736572222222,
    "lng": -2.6379777777778,
    "pop": 1298
  },
  {
    "nameAr": "Newnham",
    "nameEn": "Newnham",
    "type": "city",
    "lat": 51.803,
    "lng": -2.45,
    "pop": 1298
  },
  {
    "nameAr": "Little Oakley",
    "nameEn": "Little Oakley",
    "type": "city",
    "lat": 51.918333333333,
    "lng": 1.235,
    "pop": 1294
  },
  {
    "nameAr": "Caldy",
    "nameEn": "Caldy",
    "type": "city",
    "lat": 53.359,
    "lng": -3.164,
    "pop": 1290
  },
  {
    "nameAr": "Ardrishaig",
    "nameEn": "Ardrishaig",
    "type": "city",
    "lat": 56.0159,
    "lng": -5.44936,
    "pop": 1290
  },
  {
    "nameAr": "رينو",
    "nameEn": "Rainow",
    "type": "city",
    "lat": 53.280227777778,
    "lng": -2.0727472222222,
    "pop": 1282
  },
  {
    "nameAr": "Drumaness",
    "nameEn": "Drumaness",
    "type": "city",
    "lat": 54.3719,
    "lng": -5.85583,
    "pop": 1280
  },
  {
    "nameAr": "Carmunnock",
    "nameEn": "Carmunnock",
    "type": "city",
    "lat": 55.7895,
    "lng": -4.23753,
    "pop": 1280
  },
  {
    "nameAr": "Newton",
    "nameEn": "Newton",
    "type": "city",
    "lat": 52.3975,
    "lng": -1.22024,
    "pop": 1273
  },
  {
    "nameAr": "Kilcreggan",
    "nameEn": "Kilcreggan",
    "type": "city",
    "lat": 55.985,
    "lng": -4.82601,
    "pop": 1270
  },
  {
    "nameAr": "Swannington",
    "nameEn": "Swannington",
    "type": "city",
    "lat": 52.7409,
    "lng": -1.38526,
    "pop": 1270
  },
  {
    "nameAr": "Portknockie",
    "nameEn": "Portknockie",
    "type": "city",
    "lat": 57.7027,
    "lng": -2.8597,
    "pop": 1270
  },
  {
    "nameAr": "Bellsbank",
    "nameEn": "Bellsbank",
    "type": "city",
    "lat": 55.3118,
    "lng": -4.39642,
    "pop": 1270
  },
  {
    "nameAr": "Great Ellingham",
    "nameEn": "Great Ellingham",
    "type": "city",
    "lat": 52.5353,
    "lng": 0.9761,
    "pop": 1267
  },
  {
    "nameAr": "Walsham le Willows",
    "nameEn": "Walsham le Willows",
    "type": "city",
    "lat": 52.303,
    "lng": 0.938,
    "pop": 1257
  },
  {
    "nameAr": "Chiddingstone",
    "nameEn": "Chiddingstone",
    "type": "city",
    "lat": 51.186088888889,
    "lng": 0.14845,
    "pop": 1250
  },
  {
    "nameAr": "Ashcott",
    "nameEn": "Ashcott",
    "type": "city",
    "lat": 51.13,
    "lng": -2.807,
    "pop": 1248
  },
  {
    "nameAr": "Sevenoaks Weald",
    "nameEn": "Sevenoaks Weald",
    "type": "city",
    "lat": 51.237891666667,
    "lng": 0.19125833333333,
    "pop": 1248
  },
  {
    "nameAr": "Bushmills",
    "nameEn": "Bushmills",
    "type": "city",
    "lat": 55.2037,
    "lng": -6.5232,
    "pop": 1247
  },
  {
    "nameAr": "Burgh by Sands",
    "nameEn": "Burgh by Sands",
    "type": "city",
    "lat": 54.923055555556,
    "lng": -3.0508333333333,
    "pop": 1244
  },
  {
    "nameAr": "Bacton",
    "nameEn": "Bacton",
    "type": "city",
    "lat": 52.850369444444,
    "lng": 1.47745,
    "pop": 1243
  },
  {
    "nameAr": "Fivemiletown",
    "nameEn": "Fivemiletown",
    "type": "city",
    "lat": 54.3799,
    "lng": -7.31259,
    "pop": 1243
  },
  {
    "nameAr": "Enstone",
    "nameEn": "Enstone",
    "type": "city",
    "lat": 51.918,
    "lng": -1.454,
    "pop": 1242
  },
  {
    "nameAr": "Bamford",
    "nameEn": "Bamford",
    "type": "city",
    "lat": 53.3485,
    "lng": -1.6894,
    "pop": 1241
  },
  {
    "nameAr": "Rosneath",
    "nameEn": "Rosneath",
    "type": "city",
    "lat": 56.011,
    "lng": -4.80249,
    "pop": 1240
  },
  {
    "nameAr": "Scalloway",
    "nameEn": "Scalloway",
    "type": "city",
    "lat": 60.137,
    "lng": -1.275,
    "pop": 1240
  },
  {
    "nameAr": "Sixpenny Handley",
    "nameEn": "Sixpenny Handley",
    "type": "city",
    "lat": 50.9548,
    "lng": -2.0073,
    "pop": 1233
  },
  {
    "nameAr": "Wadworth",
    "nameEn": "Wadworth",
    "type": "city",
    "lat": 53.466666666667,
    "lng": -1.15,
    "pop": 1229
  },
  {
    "nameAr": "Wilmcote",
    "nameEn": "Wilmcote",
    "type": "city",
    "lat": 52.221,
    "lng": -1.762,
    "pop": 1229
  },
  {
    "nameAr": "تورفي",
    "nameEn": "Turvey",
    "type": "city",
    "lat": 52.162138888889,
    "lng": -0.62549166666667,
    "pop": 1225
  },
  {
    "nameAr": "Twechar",
    "nameEn": "Twechar",
    "type": "city",
    "lat": 55.9539,
    "lng": -4.08682,
    "pop": 1220
  },
  {
    "nameAr": "Coalburn",
    "nameEn": "Coalburn",
    "type": "city",
    "lat": 55.5833,
    "lng": -3.9,
    "pop": 1220
  },
  {
    "nameAr": "Bankfoot",
    "nameEn": "Bankfoot",
    "type": "city",
    "lat": 56.5014,
    "lng": -3.51727,
    "pop": 1220
  },
  {
    "nameAr": "Burton on the Wolds",
    "nameEn": "Burton on the Wolds",
    "type": "city",
    "lat": 52.784722222222,
    "lng": -1.1279166666667,
    "pop": 1218
  },
  {
    "nameAr": "Althorne",
    "nameEn": "Althorne",
    "type": "city",
    "lat": 51.6546,
    "lng": 0.7634,
    "pop": 1213
  },
  {
    "nameAr": "Innellan",
    "nameEn": "Innellan",
    "type": "city",
    "lat": 55.8943,
    "lng": -4.9573,
    "pop": 1210
  },
  {
    "nameAr": "Barmby Moor",
    "nameEn": "Barmby Moor",
    "type": "city",
    "lat": 53.930522222222,
    "lng": -0.81799722222222,
    "pop": 1205
  },
  {
    "nameAr": "راك",
    "nameEn": "Rock",
    "type": "city",
    "lat": 50.548133,
    "lng": -4.8992673,
    "pop": 1203
  },
  {
    "nameAr": "Roos",
    "nameEn": "Roos",
    "type": "city",
    "lat": 53.753577777778,
    "lng": -0.043694444444444,
    "pop": 1202
  },
  {
    "nameAr": "Churt",
    "nameEn": "Churt",
    "type": "city",
    "lat": 51.135986111111,
    "lng": -0.77747777777778,
    "pop": 1202
  },
  {
    "nameAr": "Castle Hedingham",
    "nameEn": "Castle Hedingham",
    "type": "city",
    "lat": 51.991,
    "lng": 0.604,
    "pop": 1201
  },
  {
    "nameAr": "تترنه",
    "nameEn": "Totternhoe",
    "type": "city",
    "lat": 51.884,
    "lng": -0.571,
    "pop": 1197
  },
  {
    "nameAr": "Llanrhaeadr-ym-Mochnant",
    "nameEn": "Llanrhaeadr-ym-Mochnant",
    "type": "city",
    "lat": 52.83,
    "lng": -3.3,
    "pop": 1197
  },
  {
    "nameAr": "بيكرستافيه",
    "nameEn": "Bickerstaffe",
    "type": "city",
    "lat": 53.534,
    "lng": -2.838,
    "pop": 1196
  },
  {
    "nameAr": "Hunsdon",
    "nameEn": "Hunsdon",
    "type": "city",
    "lat": 51.806598,
    "lng": 0.054245,
    "pop": 1194
  },
  {
    "nameAr": "أبرليدي",
    "nameEn": "Aberlady",
    "type": "city",
    "lat": 56.01,
    "lng": -2.86,
    "pop": 1190
  },
  {
    "nameAr": "Ardersier",
    "nameEn": "Ardersier",
    "type": "city",
    "lat": 57.5693,
    "lng": -4.03775,
    "pop": 1190
  },
  {
    "nameAr": "Dunkirk",
    "nameEn": "Dunkirk",
    "type": "city",
    "lat": 51.2915,
    "lng": 0.9804,
    "pop": 1187
  },
  {
    "nameAr": "ستودهم",
    "nameEn": "Studham",
    "type": "city",
    "lat": 51.8315,
    "lng": -0.5169,
    "pop": 1182
  },
  {
    "nameAr": "Longforgan",
    "nameEn": "Longforgan",
    "type": "city",
    "lat": 56.4572,
    "lng": -3.1233,
    "pop": 1180
  },
  {
    "nameAr": "Chesterton",
    "nameEn": "Chesterton",
    "type": "city",
    "lat": 51.888,
    "lng": -1.184,
    "pop": 1177
  },
  {
    "nameAr": "Cwmllynfell",
    "nameEn": "Cwmllynfell",
    "type": "city",
    "lat": 51.7989,
    "lng": -3.81847,
    "pop": 1172
  },
  {
    "nameAr": "Otham",
    "nameEn": "Otham",
    "type": "city",
    "lat": 51.25,
    "lng": 0.566667,
    "pop": 1166
  },
  {
    "nameAr": "Northwold",
    "nameEn": "Northwold",
    "type": "city",
    "lat": 52.544208333333,
    "lng": 0.58158888888889,
    "pop": 1165
  },
  {
    "nameAr": "Fornham All Saints",
    "nameEn": "Fornham All Saints",
    "type": "city",
    "lat": 52.2767,
    "lng": 0.6915,
    "pop": 1160
  },
  {
    "nameAr": "Findochty",
    "nameEn": "Findochty",
    "type": "city",
    "lat": 57.698,
    "lng": -2.902,
    "pop": 1160
  },
  {
    "nameAr": "St Cyrus",
    "nameEn": "St Cyrus",
    "type": "city",
    "lat": 56.7752,
    "lng": -2.415665,
    "pop": 1160
  },
  {
    "nameAr": "نورث مولتون",
    "nameEn": "North Molton",
    "type": "city",
    "lat": 51.0583,
    "lng": -3.80611,
    "pop": 1159
  },
  {
    "nameAr": "Castlerock",
    "nameEn": "Castlerock",
    "type": "city",
    "lat": 55.15,
    "lng": -6.7833333333333,
    "pop": 1155
  },
  {
    "nameAr": "Skelton",
    "nameEn": "Skelton",
    "type": "city",
    "lat": 54.710833333333,
    "lng": -2.8755555555556,
    "pop": 1153
  },
  {
    "nameAr": "Drumnadrochit",
    "nameEn": "Drumnadrochit",
    "type": "city",
    "lat": 57.3373,
    "lng": -4.48,
    "pop": 1150
  },
  {
    "nameAr": "Annahilt",
    "nameEn": "Annahilt",
    "type": "city",
    "lat": 54.4376,
    "lng": -6.00197,
    "pop": 1148
  },
  {
    "nameAr": "Wiston",
    "nameEn": "Wiston",
    "type": "city",
    "lat": 51.8264,
    "lng": -4.87032,
    "pop": 1148
  },
  {
    "nameAr": "اغغينغتون",
    "nameEn": "Eggington",
    "type": "city",
    "lat": 51.9171,
    "lng": -0.6096,
    "pop": 1146
  },
  {
    "nameAr": "Shirenewton",
    "nameEn": "Shirenewton",
    "type": "city",
    "lat": 51.6388,
    "lng": -2.7557,
    "pop": 1145
  },
  {
    "nameAr": "سانت كو",
    "nameEn": "St Kew",
    "type": "city",
    "lat": 50.558,
    "lng": -4.795,
    "pop": 1145
  },
  {
    "nameAr": "Port Bannatyne",
    "nameEn": "Port Bannatyne",
    "type": "city",
    "lat": 55.86,
    "lng": -5.08,
    "pop": 1140
  },
  {
    "nameAr": "Little Gaddesden",
    "nameEn": "Little Gaddesden",
    "type": "city",
    "lat": 51.804722222222,
    "lng": -0.55388888888889,
    "pop": 1133
  },