[
  {
    "nameAr": "طشقند",
    "nameEn": "Tashkent",
    "type": "city",
    "lat": 41.2995,
    "lng": 69.2401
  },
  {
    "nameAr": "سمرقند",
    "nameEn": "Samarkand",
    "type": "city",
    "lat": 39.6542,
    "lng": 66.9597
  },
  {
    "nameAr": "بخارى",
    "nameEn": "Bukhara",
    "type": "city",
    "lat": 39.7680,
    "lng": 64.4556
  },
  {
    "nameAr": "نمنغان",
    "nameEn": "Namangan",
    "type": "city",
    "lat": 40.9983,
    "lng": 71.6726
  },
  {
    "nameAr": "أنديجان",
    "nameEn": "Andijan",
    "type": "city",
    "lat": 40.7821,
    "lng": 72.3442
  },
  {
    "nameAr": "فرغانة",
    "nameEn": "Fergana",
    "type": "city",
    "lat": 40.3842,
    "lng": 71.7843
  }
]
