[
  {
    "nameAr": "جاكرتا",
    "nameEn": "Jakarta",
    "type": "city",
    "lat": -6.2088,
    "lng": 106.8456
  },
  {
    "nameAr": "سورابايا",
    "nameEn": "Surabaya",
    "type": "city",
    "lat": -7.2575,
    "lng": 112.7521
  },
  {
    "nameAr": "باندونغ",
    "nameEn": "Bandung",
    "type": "city",
    "lat": -6.9175,
    "lng": 107.6191
  },
  {
    "nameAr": "ميدان",
    "nameEn": "Medan",
    "type": "city",
    "lat": 3.5952,
    "lng": 98.6722
  },
  {
    "nameAr": "ماكاسار",
    "nameEn": "Makassar",
    "type": "city",
    "lat": -5.1477,
    "lng": 119.4327
  },
  {
    "nameAr": "سيمارانج",
    "nameEn": "Semarang",
    "type": "city",
    "lat": -6.9667,
    "lng": 110.4167
  },
  {
    "nameAr": "باليمبانغ",
    "nameEn": "Palembang",
    "type": "city",
    "lat": -2.9761,
    "lng": 104.7754
  },
  {
    "nameAr": "يوجياكارتا",
    "nameEn": "Yogyakarta",
    "type": "city",
    "lat": -7.7956,
    "lng": 110.3695
  },
  {
    "nameAr": "سيمارانغ",
    "nameEn": "Semarang",
    "type": "city",
    "lat": -6.9932,
    "lng": 110.4203
  },
  {
    "nameAr": "بالمبانغ",
    "nameEn": "Palembang",
    "type": "city",
    "lat": -2.9167,
    "lng": 104.7458
  },
  {
    "nameAr": "يوغياكارتا",
    "nameEn": "Yogyakarta",
    "type": "city",
    "lat": -7.7956,
    "lng": 110.3695
  },
  {
    "nameAr": "باتام",
    "nameEn": "Batam",
    "type": "city",
    "lat": 1.0456,
    "lng": 104.0305
  },
  {
    "nameAr": "باليكبابان",
    "nameEn": "Balikpapan",
    "type": "city",
    "lat": -1.2654,
    "lng": 116.8312
  },
  {
    "nameAr": "آتشيه",
    "nameEn": "Banda Aceh",
    "type": "city",
    "lat": 5.5483,
    "lng": 95.3238
  },
  {
    "nameAr": "مناهاسا",
    "nameEn": "Manado",
    "type": "city",
    "lat": 1.4748,
    "lng": 124.8421
  },
  {
    "nameAr": "أمبون",
    "nameEn": "Ambon",
    "type": "city",
    "lat": -3.6554,
    "lng": 128.1908
  }
]