[
  {
    "nameAr": "الدوحة",
    "nameEn": "Doha",
    "type": "city",
    "lat": 25.2854,
    "lng": 51.531
  },
  {
    "nameAr": "الجميلية",
    "nameEn": "Al Jumaliyah",
    "type": "city",
    "lat": 25.6297,
    "lng": 51.084
  },
  {
    "nameAr": "الخور",
    "nameEn": "Al Khor",
    "type": "city",
    "lat": 25.6833,
    "lng": 51.5
  },
  {
    "nameAr": "الريان",
    "nameEn": "Al Rayyan",
    "type": "city",
    "lat": 25.2919,
    "lng": 51.4243
  },
  {
    "nameAr": "الشحانية",
    "nameEn": "Al Shahaniya",
    "type": "city",
    "lat": 25.4167,
    "lng": 51.2167
  },
  {
    "nameAr": "الوكرة",
    "nameEn": "Al Wakrah",
    "type": "city",
    "lat": 25.1664,
    "lng": 51.6084
  },
  {
    "nameAr": "دخان",
    "nameEn": "Dukhan",
    "type": "city",
    "lat": 25.4233,
    "lng": 50.7804
  },
  {
    "nameAr": "مسيعيد",
    "nameEn": "Mesaieed",
    "type": "city",
    "lat": 24.9951,
    "lng": 51.5593
  },
  {
    "nameAr": "أبا القراريص",
    "nameEn": "Abu Al Qararis",
    "type": "city",
    "lat": 25.73622222,
    "lng": 51.40536111,
    "pop": null
  },
  {
    "nameAr": "الحيضان",
    "nameEn": "Al Heedan",
    "type": "city",
    "lat": 25.64463889,
    "lng": 51.47047222,
    "pop": null
  },
  {
    "nameAr": "الخرارة",
    "nameEn": "Al Kharrara",
    "type": "city",
    "lat": 24.90055556,
    "lng": 51.17138889,
    "pop": null
  },
  {
    "nameAr": "الخرايج",
    "nameEn": "Al Kharayej",
    "type": "city",
    "lat": 25.43027778,
    "lng": 51.50472222,
    "pop": null
  },
  {
    "nameAr": "الخريب",
    "nameEn": "Al Khurayb",
    "type": "city",
    "lat": 25.43333333,
    "lng": 51.22,
    "pop": null
  },
  {
    "nameAr": "الخريطيات (مدينة)",
    "nameEn": "Al Kharaitiyat",
    "type": "city",
    "lat": 25.4,
    "lng": 51.425,
    "pop": null
  },
  {
    "nameAr": "الخيسة",
    "nameEn": "Al Kheesa",
    "type": "city",
    "lat": 25.4175,
    "lng": 51.45888889,
    "pop": null
  },
  {
    "nameAr": "الدغيشيات",
    "nameEn": "Al Deghaishiyat",
    "type": "city",
    "lat": 25.884,
    "lng": 51.150444444444,
    "pop": null
  },
  {
    "nameAr": "الرويس",
    "nameEn": "Ar Ru'ays",
    "type": "city",
    "lat": 26.133333333333,
    "lng": 51.216666666667,
    "pop": null
  },
  {
    "nameAr": "الزغين",
    "nameEn": "Al Zeghain",
    "type": "city",
    "lat": 25.3,
    "lng": 50.86666667,
    "pop": null
  },
  {
    "nameAr": "السليمي سوسيم بن حمد",
    "nameEn": "As Sulaymi Susaym Bin Hamad",
    "type": "city",
    "lat": 25.87725,
    "lng": 51.184111111111,
    "pop": null
  },
  {
    "nameAr": "السمرية",
    "nameEn": "Al Samriya",
    "type": "city",
    "lat": 25.36472222,
    "lng": 51.28083333,
    "pop": null
  },
  {
    "nameAr": "السهلة الشمالية",
    "nameEn": "Al Sahla Al Shamaliya",
    "type": "city",
    "lat": 25.17778,
    "lng": 51.16204,
    "pop": null
  },
  {
    "nameAr": "الصخامة",
    "nameEn": "Al Sakhama",
    "type": "city",
    "lat": 25.48138889,
    "lng": 51.41861111,
    "pop": null
  },
  {
    "nameAr": "الضعاين",
    "nameEn": "Al Daayen",
    "type": "city",
    "lat": 25.56694444,
    "lng": 51.48472222,
    "pop": null
  },
  {
    "nameAr": "الغويرية",
    "nameEn": "Al Ghuwariyah",
    "type": "city",
    "lat": 25.83,
    "lng": 51.2478,
    "pop": null
  },
  {
    "nameAr": "الكرعانة",
    "nameEn": "Al Karaana",
    "type": "city",
    "lat": 25.01111111,
    "lng": 51.04444444,
    "pop": null
  },
  {
    "nameAr": "المسروحية",
    "nameEn": "Al Masrouhiya",
    "type": "city",
    "lat": 25.46083333,
    "lng": 51.46083333,
    "pop": null
  },
  {
    "nameAr": "النصرانية",
    "nameEn": "Al Nasraniya",
    "type": "city",
    "lat": 25.40305556,
    "lng": 51.07305556,
    "pop": null
  },
  {
    "nameAr": "الوجبة",
    "nameEn": "Al Wajbah",
    "type": "city",
    "lat": 24.76213,
    "lng": 51.19445,
    "pop": null
  },
  {
    "nameAr": "أم الداه خوزان",
    "nameEn": "Umm Al Daah Khawzan",
    "type": "city",
    "lat": 25.47861111,
    "lng": 50.93944444,
    "pop": null
  },
  {
    "nameAr": "أم الزبار الشرقية",
    "nameEn": "Umm Al Zubar East",
    "type": "city",
    "lat": 25.17388889,
    "lng": 51.26944444,
    "pop": null
  },
  {
    "nameAr": "أم الزبار القبلية",
    "nameEn": "Umm Al Zubar Al Qibliya",
    "type": "city",
    "lat": 25.17638889,
    "lng": 51.25194444,
    "pop": null
  },
  {
    "nameAr": "أم القهاب العتيق",
    "nameEn": "Umm Al Quhab Al 'Atiq",
    "type": "city",
    "lat": 25.500972222222,
    "lng": 50.980444444444,
    "pop": null
  },
  {
    "nameAr": "أم صلال علي",
    "nameEn": "Umm Salal Ali",
    "type": "city",
    "lat": 25.46972222,
    "lng": 51.3975,
    "pop": null
  },
  {
    "nameAr": "برقا الخراز",
    "nameEn": "Barga Al Kharaz",
    "type": "city",
    "lat": 24.698416666667,
    "lng": 50.883916666667,
    "pop": null
  },
  {
    "nameAr": "بو صليلة",
    "nameEn": "Bu Slaila",
    "type": "city",
    "lat": 25.7455,
    "lng": 51.497638888889,
    "pop": null
  },
  {
    "nameAr": "جري الذياب",
    "nameEn": "Jery Al Theyab",
    "type": "city",
    "lat": 25.831972222222,
    "lng": 51.065083333333,
    "pop": null
  },
  {
    "nameAr": "راس عشيرج",
    "nameEn": "Ras Eshairij",
    "type": "city",
    "lat": 25.944472222222,
    "lng": 51.011083333333,
    "pop": null
  },
  {
    "nameAr": "روضة الحمام",
    "nameEn": "Rawdat Al Hamama",
    "type": "city",
    "lat": 25.44611111,
    "lng": 51.46861111,
    "pop": null
  },
  {
    "nameAr": "روضة الفرس",
    "nameEn": "Rawdat Al Faras",
    "type": "city",
    "lat": 25.82191,
    "lng": 51.33107,
    "pop": null
  },
  {
    "nameAr": "روضة راشد",
    "nameEn": "Rawdat Rashed",
    "type": "city",
    "lat": 25.31944444,
    "lng": 51.35333333,
    "pop": null
  },
  {
    "nameAr": "سودا نثيل",
    "nameEn": "Sawda Natheel",
    "type": "city",
    "lat": 24.56833333,
    "lng": 51.06833333,
    "pop": null
  },
  {
    "nameAr": "عين النعمان",
    "nameEn": "Ain Al Nuaman",
    "type": "city",
    "lat": 25.85666667,
    "lng": 51.08333333,
    "pop": null
  },
  {
    "nameAr": "لحصين",
    "nameEn": "Lehsiniya",
    "type": "city",
    "lat": 25.33984,
    "lng": 51.29582,
    "pop": null
  },
  {
    "nameAr": "لحنيزيبة",
    "nameEn": "Lehnaizeeba",
    "type": "city",
    "lat": 25.745694444444,
    "lng": 51.2395,
    "pop": null
  },
  {
    "nameAr": "لعبيب",
    "nameEn": "Leabaib",
    "type": "city",
    "lat": 25.39194444,
    "lng": 51.46888889,
    "pop": null
  },
  {
    "nameAr": "لعوينة",
    "nameEn": "Al Owaina",
    "type": "city",
    "lat": 25.44165,
    "lng": 50.95793,
    "pop": null
  },
  {
    "nameAr": "لوسيل",
    "nameEn": "Lusail",
    "type": "city",
    "lat": 25.4175,
    "lng": 51.5075,
    "pop": null
  },
  {
    "nameAr": "مدينة الشمال",
    "nameEn": "Al Shamal",
    "type": "city",
    "lat": 26.11666667,
    "lng": 51.21666667,
    "pop": null
  },
  {
    "nameAr": "مزرعة ترينة",
    "nameEn": "Mazraiat Turayna",
    "type": "city",
    "lat": 24.758972222222,
    "lng": 51.209527777778,
    "pop": null
  }
]