[
  {
    "nameAr": "نيودلهي",
    "nameEn": "New Delhi",
    "type": "city",
    "lat": 28.6139,
    "lng": 77.209
  },
  {
    "nameAr": "مومباي",
    "nameEn": "Mumbai",
    "type": "city",
    "lat": 19.075833333333,
    "lng": 72.8775,
    "pop": 15414288
  },
  {
    "nameAr": "أحمد آباد",
    "nameEn": "Ahmedabad",
    "type": "city",
    "lat": 23.021944444444,
    "lng": 72.579722222222,
    "pop": 7645000
  },
  {
    "nameAr": "بونه",
    "nameEn": "Pune",
    "type": "city",
    "lat": 18.521111111111,
    "lng": 73.855277777778,
    "pop": 6200000
  },
  {
    "nameAr": "الله أباد",
    "nameEn": "Prayagraj",
    "type": "city",
    "lat": 25.45,
    "lng": 81.85,
    "pop": 5954391
  },
  {
    "nameAr": "سورت",
    "nameEn": "Surat",
    "type": "city",
    "lat": 21.205,
    "lng": 72.84,
    "pop": 5935000
  },
  {
    "nameAr": "كانبور",
    "nameEn": "Kanpur",
    "type": "city",
    "lat": 26.4725,
    "lng": 80.331111111111,
    "pop": 4581268
  },
  {
    "nameAr": "لكنو",
    "nameEn": "Lucknow",
    "type": "city",
    "lat": 26.847,
    "lng": 80.947,
    "pop": 3382000
  },
  {
    "nameAr": "جيبور",
    "nameEn": "Jaipur",
    "type": "city",
    "lat": 26.915,
    "lng": 75.82,
    "pop": 3073350
  },
  {
    "nameAr": "ناغبور",
    "nameEn": "Nagpur",
    "type": "city",
    "lat": 21.149722222222,
    "lng": 79.080555555556,
    "pop": 2405665
  },
  {
    "nameAr": "غازي آباد",
    "nameEn": "Ghaziabad",
    "type": "city",
    "lat": 28.666666666667,
    "lng": 77.416666666667,
    "pop": 2375820
  },
  {
    "nameAr": "فادودارا",
    "nameEn": "Vadodara",
    "type": "city",
    "lat": 22.3,
    "lng": 73.2,
    "pop": 2065771
  },
  {
    "nameAr": "راجكوت",
    "nameEn": "Rajkot",
    "type": "city",
    "lat": 22.296908333333,
    "lng": 70.798363888889,
    "pop": 2043000
  },
  {
    "nameAr": "إندور",
    "nameEn": "Indore",
    "type": "city",
    "lat": 22.718611111111,
    "lng": 75.855,
    "pop": 1994397
  },
  {
    "nameAr": "تانة",
    "nameEn": "Thane",
    "type": "city",
    "lat": 19.18,
    "lng": 72.963333333333,
    "pop": 1886941
  },
  {
    "nameAr": "بوبال",
    "nameEn": "Bhopal",
    "type": "city",
    "lat": 23.25,
    "lng": 77.416666666667,
    "pop": 1798218
  },
  {
    "nameAr": "باتنا",
    "nameEn": "Patna",
    "type": "city",
    "lat": 25.61,
    "lng": 85.141388888889,
    "pop": 1684222
  },
  {
    "nameAr": "لديانة",
    "nameEn": "Ludhiana",
    "type": "city",
    "lat": 30.908333333333,
    "lng": 75.848611111111,
    "pop": 1618879
  },
  {
    "nameAr": "أغرة",
    "nameEn": "Agra",
    "type": "city",
    "lat": 27.18,
    "lng": 78.02,
    "pop": 1585705
  },
  {
    "nameAr": "ميرت",
    "nameEn": "Meerut",
    "type": "city",
    "lat": 28.98,
    "lng": 77.706388888889,
    "pop": 1571434
  },
  {
    "nameAr": "مادوراي",
    "nameEn": "Madurai",
    "type": "city",
    "lat": 9.9196611111111,
    "lng": 78.119394444444,
    "pop": 1561129
  },
  {
    "nameAr": "جمشيدبور",
    "nameEn": "Jamshedpur",
    "type": "city",
    "lat": 22.8,
    "lng": 86.183333333333,
    "pop": 1558000
  },
  {
    "nameAr": "ناشيك",
    "nameEn": "Nashik",
    "type": "city",
    "lat": 20,
    "lng": 73.783333333333,
    "pop": 1486053
  },
  {
    "nameAr": "فريد آباد",
    "nameEn": "Faridabad",
    "type": "city",
    "lat": 28.416666666667,
    "lng": 77.3,
    "pop": 1404653
  },
  {
    "nameAr": "جبلبور",
    "nameEn": "Jabalpur",
    "type": "city",
    "lat": 23.166666666667,
    "lng": 79.933333333333,
    "pop": 1267564
  },
  {
    "nameAr": "فاساي فيرار",
    "nameEn": "Vasai-Virar",
    "type": "city",
    "lat": 19.47,
    "lng": 72.8,
    "pop": 1222390
  },
  {
    "nameAr": "فاراناسي",
    "nameEn": "Varanasi",
    "type": "city",
    "lat": 25.318888888889,
    "lng": 83.012777777778,
    "pop": 1198491
  },
  {
    "nameAr": "سري نكر",
    "nameEn": "Srinagar",
    "type": "city",
    "lat": 34.091111111111,
    "lng": 74.806111111111,
    "pop": 1180570
  },
  {
    "nameAr": "أورنك آباد",
    "nameEn": "Aurangabad",
    "type": "city",
    "lat": 19.88,
    "lng": 75.32,
    "pop": 1175116
  },
  {
    "nameAr": "أمرتسر",
    "nameEn": "Amritsar",
    "type": "city",
    "lat": 31.626917,
    "lng": 74.87704,
    "pop": 1132383
  },
  {
    "nameAr": "نافي مومباي",
    "nameEn": "Navi Mumbai",
    "type": "city",
    "lat": 19.03,
    "lng": 73.01,
    "pop": 1119477
  },
  {
    "nameAr": "غواهاتي",
    "nameEn": "Guwahati",
    "type": "city",
    "lat": 26.1805876,
    "lng": 91.750238,
    "pop": 1116267
  },
  {
    "nameAr": "رانشي",
    "nameEn": "Ranchi",
    "type": "city",
    "lat": 23.355555555556,
    "lng": 85.334722222222,
    "pop": 1073440
  },
  {
    "nameAr": "قاليور",
    "nameEn": "Gwalior",
    "type": "city",
    "lat": 26.2125,
    "lng": 78.1775,
    "pop": 1069276
  },
  {
    "nameAr": "شَنديغار",
    "nameEn": "Chandigarh",
    "type": "city",
    "lat": 30.736388888889,
    "lng": 76.788333333333,
    "pop": 1055450
  },
  {
    "nameAr": "فيجاياوادا",
    "nameEn": "Vijayawada",
    "type": "city",
    "lat": 16.516666666667,
    "lng": 80.616666666667,
    "pop": 1048240
  },
  {
    "nameAr": "جدبور",
    "nameEn": "Jodhpur",
    "type": "city",
    "lat": 26.294444444444,
    "lng": 73.027777777778,
    "pop": 1033918
  },
  {
    "nameAr": "رايبور",
    "nameEn": "Raipur",
    "type": "city",
    "lat": 21.2379468,
    "lng": 81.6336833,
    "pop": 1010087
  },
  {
    "nameAr": "كوتة",
    "nameEn": "Kota",
    "type": "city",
    "lat": 25.18,
    "lng": 75.83,
    "pop": 1001694
  },
  {
    "nameAr": "بريلي",
    "nameEn": "Bareilly",
    "type": "city",
    "lat": 28.364,
    "lng": 79.415,
    "pop": 1000000
  },
  {
    "nameAr": "كويمباتور",
    "nameEn": "Coimbatore",
    "type": "city",
    "lat": 11.000833333333,
    "lng": 76.963333333333,
    "pop": 959823
  },
  {
    "nameAr": "سولابور",
    "nameEn": "Solapur",
    "type": "city",
    "lat": 17.670277777778,
    "lng": 75.901111111111,
    "pop": 951558
  },
  {
    "nameAr": "تيريوشيراببالي",
    "nameEn": "Tiruchirappalli",
    "type": "city",
    "lat": 10.826944444444,
    "lng": 78.692777777778,
    "pop": 916857
  },
  {
    "nameAr": "مراد آباد",
    "nameEn": "Moradabad",
    "type": "city",
    "lat": 28.838888888889,
    "lng": 78.776944444444,
    "pop": 887871
  },
  {
    "nameAr": "جورجاون",
    "nameEn": "Gurgaon",
    "type": "city",
    "lat": 28.466666666667,
    "lng": 77.033333333333,
    "pop": 876824
  },
  {
    "nameAr": "عليكرة",
    "nameEn": "Aligarh",
    "type": "city",
    "lat": 27.88,
    "lng": 78.08,
    "pop": 874408
  },
  {
    "nameAr": "جالاندهار",
    "nameEn": "Jalandhar",
    "type": "city",
    "lat": 31.325555555556,
    "lng": 75.579166666667,
    "pop": 873725
  },
  {
    "nameAr": "بوبانسوار",
    "nameEn": "Bhubaneswar",
    "type": "city",
    "lat": 20.295,
    "lng": 85.825,
    "pop": 837737
  },
  {
    "nameAr": "ميرا-بياندار",
    "nameEn": "Mira-Bhayandar",
    "type": "city",
    "lat": 19.3,
    "lng": 72.85,
    "pop": 814655
  },
  {
    "nameAr": "ثيروفانانثابورام",
    "nameEn": "Thiruvananthapuram",
    "type": "city",
    "lat": 8.4875,
    "lng": 76.9525,
    "pop": 743691
  },
  {
    "nameAr": "بيواندي",
    "nameEn": "Bhiwandi",
    "type": "city",
    "lat": 19.3,
    "lng": 73.066666666667,
    "pop": 709665
  },
  {
    "nameAr": "سَهَارَنبور",
    "nameEn": "Saharanpur",
    "type": "city",
    "lat": 29.964,
    "lng": 77.546,
    "pop": 705478
  },
  {
    "nameAr": "ورنجل",
    "nameEn": "Warangal",
    "type": "city",
    "lat": 17.975555555556,
    "lng": 79.601111111111,
    "pop": 704570
  },
  {
    "nameAr": "سالم",
    "nameEn": "Salem",
    "type": "city",
    "lat": 11.65,
    "lng": 78.166666666667,
    "pop": 693236
  },
  {
    "nameAr": "كوتشي",
    "nameEn": "Kochi",
    "type": "city",
    "lat": 9.9666666666667,
    "lng": 76.283333333333,
    "pop": 677381
  },
  {
    "nameAr": "غوراخبور",
    "nameEn": "Gorakhpur",
    "type": "city",
    "lat": 26.761111111111,
    "lng": 83.366666666667,
    "pop": 673446
  },
  {
    "nameAr": "جونتور",
    "nameEn": "Guntur",
    "type": "city",
    "lat": 16.3,
    "lng": 80.45,
    "pop": 647508
  },
  {
    "nameAr": "نويدا",
    "nameEn": "Noida",
    "type": "city",
    "lat": 28.57,
    "lng": 77.32,
    "pop": 637272
  },
  {
    "nameAr": "Bidhannagar",
    "nameEn": "Bidhannagar",
    "type": "city",
    "lat": 22.58,
    "lng": 88.42,
    "pop": 632107
  },
  {
    "nameAr": "بهيلاي",
    "nameEn": "Bhilai",
    "type": "city",
    "lat": 21.21,
    "lng": 81.38,
    "pop": 625700
  },
  {
    "nameAr": "منغلور",
    "nameEn": "Mangaluru",
    "type": "city",
    "lat": 12.871666666667,
    "lng": 74.8425,
    "pop": 623841
  },
  {
    "nameAr": "كوتاك",
    "nameEn": "Cuttack",
    "type": "city",
    "lat": 20.45,
    "lng": 85.866666666667,
    "pop": 606007
  },
  {
    "nameAr": "دهردون",
    "nameEn": "Dehradun",
    "type": "city",
    "lat": 30.318,
    "lng": 78.029,
    "pop": 578420
  },
  {
    "nameAr": "درغابور",
    "nameEn": "Durgapur",
    "type": "city",
    "lat": 23.55,
    "lng": 87.32,
    "pop": 566517
  },
  {
    "nameAr": "أسانسول",
    "nameEn": "Asansol",
    "type": "city",
    "lat": 23.683333333333,
    "lng": 86.966666666667,
    "pop": 563917
  },
  {
    "nameAr": "أمرافاتي",
    "nameEn": "Amravati",
    "type": "city",
    "lat": 20.933333333333,
    "lng": 77.75,
    "pop": 549370
  },
  {
    "nameAr": "نيلور",
    "nameEn": "Nellore",
    "type": "city",
    "lat": 14.433333333333,
    "lng": 79.966666666667,
    "pop": 547621
  },
  {
    "nameAr": "Mahasi",
    "nameEn": "Mahasi",
    "type": "city",
    "lat": 27.639722222222,
    "lng": 81.385555555556,
    "pop": 546995
  },
  {
    "nameAr": "أجمير",
    "nameEn": "Ajmer",
    "type": "city",
    "lat": 26.468,
    "lng": 74.639,
    "pop": 542321
  },
  {
    "nameAr": "بيكانير",
    "nameEn": "Bikaner",
    "type": "city",
    "lat": 28.018055555556,
    "lng": 73.316944444444,
    "pop": 529007
  },
  {
    "nameAr": "أجارتالا",
    "nameEn": "Agartala",
    "type": "city",
    "lat": 23.833333333333,
    "lng": 91.266666666667,
    "pop": 522613
  },
  {
    "nameAr": "أوجاين",
    "nameEn": "Ujjain",
    "type": "city",
    "lat": 23.182777777778,
    "lng": 75.777222222222,
    "pop": 515215
  },
  {
    "nameAr": "جانسى",
    "nameEn": "Jhansi",
    "type": "city",
    "lat": 25.44862,
    "lng": 78.56962,
    "pop": 507000
  },
  {
    "nameAr": "أولهاسنغر",
    "nameEn": "Ulhasnagar",
    "type": "city",
    "lat": 19.216666666667,
    "lng": 73.15,
    "pop": 506098
  },
  {
    "nameAr": "جمون",
    "nameEn": "Jammu",
    "type": "city",
    "lat": 32.733333333333,
    "lng": 74.85,
    "pop": 502197
  },
  {
    "nameAr": "بيلغام",
    "nameEn": "Belgaum",
    "type": "city",
    "lat": 15.856944444444,
    "lng": 74.504444444444,
    "pop": 488157
  },
  {
    "nameAr": "فيلور",
    "nameEn": "Vellore",
    "type": "city",
    "lat": 12.933333333333,
    "lng": 79.133333333333,
    "pop": 484690
  },
  {
    "nameAr": "جام نجر",
    "nameEn": "Jamnagar",
    "type": "city",
    "lat": 22.47,
    "lng": 70.07,
    "pop": 479920
  },
  {
    "nameAr": "غايا",
    "nameEn": "Gaya",
    "type": "city",
    "lat": 24.75,
    "lng": 85.016666666667,
    "pop": 474093
  },
  {
    "nameAr": "جالجاون",
    "nameEn": "Jalgaon",
    "type": "city",
    "lat": 21.016666666667,
    "lng": 75.566666666667,
    "pop": 460468
  },
  {
    "nameAr": "كرنول",
    "nameEn": "Kurnool",
    "type": "city",
    "lat": 15.822222222222,
    "lng": 78.035,
    "pop": 457633
  },
  {
    "nameAr": "أديبور",
    "nameEn": "Udaipur",
    "type": "city",
    "lat": 24.583333333333,
    "lng": 73.683333333333,
    "pop": 451100
  },
  {
    "nameAr": "Maheshtala",
    "nameEn": "Maheshtala",
    "type": "city",
    "lat": 22.5060294,
    "lng": 88.2501665,
    "pop": 448317
  },
  {
    "nameAr": "سنغالي",
    "nameEn": "Sangli",
    "type": "city",
    "lat": 16.866666666667,
    "lng": 74.566666666667,
    "pop": 436639
  },
  {
    "nameAr": "قاليقوط",
    "nameEn": "Kozhikode",
    "type": "city",
    "lat": 11.247777777778,
    "lng": 75.780277777778,
    "pop": 431560
  },
  {
    "nameAr": "أكولا",
    "nameEn": "Akola",
    "type": "city",
    "lat": 20.733333333333,
    "lng": 77,
    "pop": 425817
  },
  {
    "nameAr": "Rajpur Sonarpur",
    "nameEn": "Rajpur Sonarpur",
    "type": "city",
    "lat": 22.4408748,
    "lng": 88.4246368,
    "pop": 424368
  },
  {
    "nameAr": "تيرونلفلي",
    "nameEn": "Tirunelveli",
    "type": "city",
    "lat": 8.7288888888889,
    "lng": 77.708055555556,
    "pop": 411298
  },
  {
    "nameAr": "بهاجالبور",
    "nameEn": "Bhagalpur",
    "type": "city",
    "lat": 25.25,
    "lng": 87.016666666667,
    "pop": 410210
  },
  {
    "nameAr": "بتيالة",
    "nameEn": "Patiala",
    "type": "city",
    "lat": 30.566666666667,
    "lng": 76.633333333333,
    "pop": 406192
  },
  {
    "nameAr": "جنوب دمدم",
    "nameEn": "South Dum Dum",
    "type": "city",
    "lat": 22.61,
    "lng": 88.4,
    "pop": 403316
  },
  {
    "nameAr": "كولام",
    "nameEn": "Kollam",
    "type": "city",
    "lat": 8.8852777777778,
    "lng": 76.586388888889,
    "pop": 397419
  },
  {
    "nameAr": "مظفر نگر",
    "nameEn": "Muzaffarnagar",
    "type": "city",
    "lat": 29.470833333333,
    "lng": 77.703333333333,
    "pop": 392768
  },
  {
    "nameAr": "بهاتبارا",
    "nameEn": "Bhatpara",
    "type": "city",
    "lat": 22.866388888889,
    "lng": 88.401111111111,
    "pop": 386019
  },
  {
    "nameAr": "كاكينادا",
    "nameEn": "Kakinada",
    "type": "city",
    "lat": 16.933333333333,
    "lng": 82.216666666667,
    "pop": 384182
  },
  {
    "nameAr": "Panihati",
    "nameEn": "Panihati",
    "type": "city",
    "lat": 22.69,
    "lng": 88.37,
    "pop": 377347
  },
  {
    "nameAr": "روهتاك",
    "nameEn": "Rohtak",
    "type": "city",
    "lat": 28.9,
    "lng": 76.566666666667,
    "pop": 374292
  },
  {
    "nameAr": "بيلاسبور",
    "nameEn": "Bilaspur",
    "type": "city",
    "lat": 22.08,
    "lng": 82.155555555556,
    "pop": 365579
  },
  {
    "nameAr": "أحمد نكر",
    "nameEn": "Ahilyanagar",
    "type": "city",
    "lat": 19.083333333333,
    "lng": 74.733333333333,
    "pop": 350859
  },
  {
    "nameAr": "Kadapa",
    "nameEn": "Kadapa",
    "type": "city",
    "lat": 14.466666666667,
    "lng": 78.816666666667,
    "pop": 344893
  },
  {
    "nameAr": "الوار",
    "nameEn": "Alwar",
    "type": "city",
    "lat": 27.566666666667,
    "lng": 76.616666666667,
    "pop": 341422
  },
  {
    "nameAr": "مظفربور",
    "nameEn": "Muzaffarpur",
    "type": "city",
    "lat": 26.12,
    "lng": 85.383333333333,
    "pop": 333200
  },
  {
    "nameAr": "Kamarhati",
    "nameEn": "Kamarhati",
    "type": "city",
    "lat": 22.67,
    "lng": 88.37,
    "pop": 330211
  },
  {
    "nameAr": "بيجابور",
    "nameEn": "Vijayapura",
    "type": "city",
    "lat": 16.82442,
    "lng": 75.71537,
    "pop": 327427
  },
  {
    "nameAr": "جوناغاد",
    "nameEn": "Junagadh",
    "type": "city",
    "lat": 21.52,
    "lng": 70.47,
    "pop": 320250
  },
  {
    "nameAr": "تريشور",
    "nameEn": "Thrissur",
    "type": "city",
    "lat": 10.52,
    "lng": 76.21,
    "pop": 315596
  },
  {
    "nameAr": "باردمان",
    "nameEn": "Bardhaman",
    "type": "city",
    "lat": 23.25,
    "lng": 87.85,
    "pop": 314265
  },
  {
    "nameAr": "نظام أباد",
    "nameEn": "Nizamabad",
    "type": "city",
    "lat": 18.671997222222,
    "lng": 78.094,
    "pop": 311152
  },
  {
    "nameAr": "بورنيا",
    "nameEn": "Purnia",
    "type": "city",
    "lat": 25.78,
    "lng": 87.47,
    "pop": 310817
  },
  {
    "nameAr": "حصار",
    "nameEn": "Hisar",
    "type": "city",
    "lat": 29.148888888889,
    "lng": 75.736666666667,
    "pop": 307024
  },
  {
    "nameAr": "سيليجري",
    "nameEn": "Siliguri",
    "type": "city",
    "lat": 26.72,
    "lng": 88.42,
    "pop": 294546
  },
  {
    "nameAr": "آيزاول",
    "nameEn": "Aizawl",
    "type": "city",
    "lat": 23.733333333333,
    "lng": 92.716666666667,
    "pop": 293416
  },
  {
    "nameAr": "Bally",
    "nameEn": "Bally",
    "type": "city",
    "lat": 22.65,
    "lng": 88.34,
    "pop": 293373
  },
  {
    "nameAr": "كريم نجر",
    "nameEn": "Karimnagar",
    "type": "city",
    "lat": 18.43554,
    "lng": 79.13371,
    "pop": 289821
  },
  {
    "nameAr": "إيشل كرنجي",
    "nameEn": "Ichalkaranji",
    "type": "city",
    "lat": 16.7,
    "lng": 74.47,
    "pop": 287570
  },
  {
    "nameAr": "بطندا",
    "nameEn": "Bathinda",
    "type": "city",
    "lat": 30.213333333333,
    "lng": 74.951944444444,
    "pop": 285813
  },
  {
    "nameAr": "Satna",
    "nameEn": "Satna",
    "type": "city",
    "lat": 24.598351185136,
    "lng": 80.828125281709,
    "pop": 283004
  },
  {
    "nameAr": "Barasat",
    "nameEn": "Barasat",
    "type": "city",
    "lat": 22.7191072,
    "lng": 88.4826229,
    "pop": 278435
  },
  {
    "nameAr": "راتلام",
    "nameEn": "Ratlam",
    "type": "city",
    "lat": 23.316666666667,
    "lng": 75.066666666667,
    "pop": 273892
  },
  {
    "nameAr": "هندوار",
    "nameEn": "Handwara",
    "type": "city",
    "lat": 34.4,
    "lng": 74.28,
    "pop": 269311
  },
  {
    "nameAr": "دورج",
    "nameEn": "Durg",
    "type": "city",
    "lat": 21.19,
    "lng": 81.28,
    "pop": 268806
  },
  {
    "nameAr": "إمفال",
    "nameEn": "Imphal",
    "type": "city",
    "lat": 24.82,
    "lng": 93.95,
    "pop": 268243
  },
  {
    "nameAr": "Tuni",
    "nameEn": "Tuni",
    "type": "city",
    "lat": 17.35,
    "lng": 82.55,
    "pop": 254425
  },
  {
    "nameAr": "نارنول",
    "nameEn": "Narnaul",
    "type": "city",
    "lat": 28.044444444444,
    "lng": 76.108333333333,
    "pop": 252786
  },
  {
    "nameAr": "Godavarikhani",
    "nameEn": "Godavarikhani",
    "type": "city",
    "lat": 18.751891666667,
    "lng": 79.513311111111,
    "pop": 252693
  },
  {
    "nameAr": "بهاراتبور",
    "nameEn": "Bharatpur",
    "type": "city",
    "lat": 27.217222222222,
    "lng": 77.49,
    "pop": 252342
  },
  {
    "nameAr": "بجساراي",
    "nameEn": "Begusarai",
    "type": "city",
    "lat": 25.42,
    "lng": 86.13,
    "pop": 252008
  },
  {
    "nameAr": "شمال دمدم",
    "nameEn": "North Dum Dum",
    "type": "city",
    "lat": 22.65208,
    "lng": 88.41907,
    "pop": 249142
  },
  {
    "nameAr": "Baranagar",
    "nameEn": "Baranagar",
    "type": "city",
    "lat": 22.64,
    "lng": 88.37,
    "pop": 245213
  },
  {
    "nameAr": "Uluberia",
    "nameEn": "Uluberia",
    "type": "city",
    "lat": 22.47,
    "lng": 88.11,
    "pop": 235345
  },
  {
    "nameAr": "بالي",
    "nameEn": "Pali",
    "type": "city",
    "lat": 25.7725,
    "lng": 73.323333333333,
    "pop": 229956
  },
  {
    "nameAr": "فيزينجارم",
    "nameEn": "Vizianagaram",
    "type": "city",
    "lat": 18.116666666667,
    "lng": 83.416666666667,
    "pop": 228720
  },
  {
    "nameAr": "نادياد",
    "nameEn": "Nadiad",
    "type": "city",
    "lat": 22.7,
    "lng": 72.87,
    "pop": 225132
  },
  {
    "nameAr": "ثنجفور",
    "nameEn": "Thanjavur",
    "type": "city",
    "lat": 10.787,
    "lng": 79.137806,
    "pop": 222943
  },
  {
    "nameAr": "سنبل",
    "nameEn": "Sambhal",
    "type": "city",
    "lat": 28.585197,
    "lng": 78.570932,
    "pop": 220813
  },
  {
    "nameAr": "نياتي",
    "nameEn": "Naihati",
    "type": "city",
    "lat": 22.89,
    "lng": 88.42,
    "pop": 217900
  },
  {
    "nameAr": "تصنيف:إسكندر آباد",
    "nameEn": "Secunderabad",
    "type": "city",
    "lat": 17.45,
    "lng": 78.5,
    "pop": 213698
  },
  {
    "nameAr": "Kharagpur",
    "nameEn": "Kharagpur",
    "type": "city",
    "lat": 22.330239,
    "lng": 87.323653,
    "pop": 207604
  },
  {
    "nameAr": "Dindigul",
    "nameEn": "Dindigul",
    "type": "city",
    "lat": 10.36896,
    "lng": 77.98036,
    "pop": 207327
  },
  {
    "nameAr": "شيملا",
    "nameEn": "Shimla",
    "type": "city",
    "lat": 31.103333333333,
    "lng": 77.172222222222,
    "pop": 206575
  },
  {
    "nameAr": "مالدا",
    "nameEn": "Malda",
    "type": "city",
    "lat": 25.004444444444,
    "lng": 88.145833333333,
    "pop": 205521
  },
  {
    "nameAr": "إيلورو",
    "nameEn": "Eluru",
    "type": "city",
    "lat": 16.711666666667,
    "lng": 81.103055555556,
    "pop": 203780
  },
  {
    "nameAr": "دوغار",
    "nameEn": "Deoghar",
    "type": "city",
    "lat": 24.48,
    "lng": 86.7,
    "pop": 203116
  },
  {
    "nameAr": "بوري",
    "nameEn": "Puri",
    "type": "city",
    "lat": 19.8,
    "lng": 85.816666666667,
    "pop": 201026
  },
  {
    "nameAr": "Haldia",
    "nameEn": "Haldia",
    "type": "city",
    "lat": 22.03,
    "lng": 88.06,
    "pop": 200827
  },
  {
    "nameAr": "Chakradharpur",
    "nameEn": "Chakradharpur",
    "type": "city",
    "lat": 22.7,
    "lng": 85.63,
    "pop": 197953
  },
  {
    "nameAr": "بهيواني",
    "nameEn": "Bhiwani",
    "type": "city",
    "lat": 28.783333333333,
    "lng": 76.133333333333,
    "pop": 197662
  },
  {
    "nameAr": "Madhyamgram",
    "nameEn": "Madhyamgram",
    "type": "city",
    "lat": 22.7,
    "lng": 88.45,
    "pop": 196127
  },
  {
    "nameAr": "غانديناغار",
    "nameEn": "Gandhinagar",
    "type": "city",
    "lat": 23.223,
    "lng": 72.65,
    "pop": 195891
  },
  {
    "nameAr": "Berhampore",
    "nameEn": "Berhampore",
    "type": "city",
    "lat": 24.1,
    "lng": 88.25,
    "pop": 195223
  },
  {
    "nameAr": "محبوب نجر",
    "nameEn": "Mahabubnagar",
    "type": "city",
    "lat": 16.733333333333,
    "lng": 77.983333333333,
    "pop": 190400
  },
  {
    "nameAr": "مهسانا",
    "nameEn": "Mehsana",
    "type": "city",
    "lat": 23.6,
    "lng": 72.4,
    "pop": 184991
  },
  {
    "nameAr": "Raiganj",
    "nameEn": "Raiganj",
    "type": "city",
    "lat": 25.616666666667,
    "lng": 88.116666666667,
    "pop": 183612
  },
  {
    "nameAr": "بتالا",
    "nameEn": "Batala",
    "type": "city",
    "lat": 31.8186,
    "lng": 75.2028,
    "pop": 183314
  },
  {
    "nameAr": "سيرامبور",
    "nameEn": "Serampore",
    "type": "city",
    "lat": 22.75,
    "lng": 88.34,
    "pop": 181842
  },
  {
    "nameAr": "جونبور",
    "nameEn": "Jaunpur",
    "type": "city",
    "lat": 25.753611111111,
    "lng": 82.686944444444,
    "pop": 180362
  },
  {
    "nameAr": "Hugli-Chuchura",
    "nameEn": "Hugli-Chuchura",
    "type": "city",
    "lat": 22.908888888889,
    "lng": 88.396666666667,
    "pop": 179931
  },
  {
    "nameAr": "Cuddalore",
    "nameEn": "Cuddalore",
    "type": "city",
    "lat": 11.75,
    "lng": 79.75,
    "pop": 173676
  },
  {
    "nameAr": "Deo Town",
    "nameEn": "Deo Town",
    "type": "city",
    "lat": 24.656055555556,
    "lng": 84.435647222222,
    "pop": 173216
  },
  {
    "nameAr": "بيدر",
    "nameEn": "Bidar",
    "type": "city",
    "lat": 17.9,
    "lng": 77.55,
    "pop": 172298
  },
  {
    "nameAr": "ماتشيليباتنام",
    "nameEn": "Machilipatnam",
    "type": "city",
    "lat": 16.166666666667,
    "lng": 81.133333333333,
    "pop": 169892
  },
  {
    "nameAr": "مدينبور",
    "nameEn": "Medinipur",
    "type": "city",
    "lat": 22.433333333333,
    "lng": 87.333333333333,
    "pop": 169264
  },
  {
    "nameAr": "Chandannagar",
    "nameEn": "Chandannagar",
    "type": "city",
    "lat": 22.8670577,
    "lng": 88.3674112,
    "pop": 166867
  },
  {
    "nameAr": "أودوبي",
    "nameEn": "Udupi",
    "type": "city",
    "lat": 13.33467,
    "lng": 74.74617,
    "pop": 165401
  },
  {
    "nameAr": "تونك",
    "nameEn": "Tonk",
    "type": "city",
    "lat": 26.166666666667,
    "lng": 75.783333333333,
    "pop": 165363
  },
  {
    "nameAr": "فيض آباد",
    "nameEn": "Faizabad",
    "type": "city",
    "lat": 26.783333333333,
    "lng": 82.133333333333,
    "pop": 165228
  },
  {
    "nameAr": "كانتشيبورام",
    "nameEn": "Kanchipuram",
    "type": "city",
    "lat": 12.830833333333,
    "lng": 79.707777777778,
    "pop": 164384
  },
  {
    "nameAr": "Godhra",
    "nameEn": "Godhra",
    "type": "city",
    "lat": 22.777222222222,
    "lng": 73.620277777778,
    "pop": 161925
  },
  {
    "nameAr": "شيتور",
    "nameEn": "Chittoor",
    "type": "city",
    "lat": 13.2,
    "lng": 79.116666666667,
    "pop": 160722
  },
  {
    "nameAr": "أوتاربارا",
    "nameEn": "Uttarpara Kotrung",
    "type": "city",
    "lat": 22.67,
    "lng": 88.35,
    "pop": 159147
  },
  {
    "nameAr": "بهروش",
    "nameEn": "Bharuch",
    "type": "city",
    "lat": 21.69482,
    "lng": 72.9805,
    "pop": 158253
  },
  {
    "nameAr": "ساهارسا",
    "nameEn": "Saharsa",
    "type": "city",
    "lat": 25.88,
    "lng": 86.6,
    "pop": 156540
  },
  {
    "nameAr": "فيديشا",
    "nameEn": "Vidisha",
    "type": "city",
    "lat": 23.5239,
    "lng": 77.8061,
    "pop": 155959
  },
  {
    "nameAr": "بتنكوت",
    "nameEn": "Pathankot",
    "type": "city",
    "lat": 32.268888888889,
    "lng": 75.649722222222,
    "pop": 155909
  },
  {
    "nameAr": "Rudrapur",
    "nameEn": "Rudrapur",
    "type": "city",
    "lat": 28.970833333333,
    "lng": 79.397222222222,
    "pop": 154485
  },
  {
    "nameAr": "ديبروجاره",
    "nameEn": "Dibrugarh",
    "type": "city",
    "lat": 27.483333333333,
    "lng": 94.9,
    "pop": 154019
  },
  {
    "nameAr": "Veraval",
    "nameEn": "Veraval",
    "type": "city",
    "lat": 20.9,
    "lng": 70.37,
    "pop": 153696
  },
  {
    "nameAr": "Krishnanagar",
    "nameEn": "Krishnanagar",
    "type": "city",
    "lat": 23.4,
    "lng": 88.5,
    "pop": 153062
  },
  {
    "nameAr": "Barrackpore",
    "nameEn": "Barrackpore",
    "type": "city",
    "lat": 22.7641623,
    "lng": 88.3776088,
    "pop": 152783
  },
  {
    "nameAr": "Santipur",
    "nameEn": "Santipur",
    "type": "city",
    "lat": 23.25,
    "lng": 88.43,
    "pop": 151777
  },
  {
    "nameAr": "Hindupur",
    "nameEn": "Hindupur",
    "type": "city",
    "lat": 13.83,
    "lng": 77.49,
    "pop": 151677
  },
  {
    "nameAr": "بيوار",
    "nameEn": "Beawar",
    "type": "city",
    "lat": 26.101111111111,
    "lng": 74.320277777778,
    "pop": 151472
  },
  {
    "nameAr": "ارود",
    "nameEn": "Erode",
    "type": "city",
    "lat": 11.3428,
    "lng": 77.72741,
    "pop": 151184
  },
  {
    "nameAr": "Habra",
    "nameEn": "Habra",
    "type": "city",
    "lat": 22.83,
    "lng": 88.63,
    "pop": 147221
  },
  {
    "nameAr": "Nagaon",
    "nameEn": "Nagaon",
    "type": "city",
    "lat": 26.349166666667,
    "lng": 92.686111111111,
    "pop": 147137
  },
  {
    "nameAr": "بيد",
    "nameEn": "Beed",
    "type": "city",
    "lat": 18.989166666667,
    "lng": 75.756388888889,
    "pop": 146709
  },
  {
    "nameAr": "مهالي",
    "nameEn": "Mohali",
    "type": "city",
    "lat": 30.719444444444,
    "lng": 76.718055555556,
    "pop": 146213
  },
  {
    "nameAr": "Etah",
    "nameEn": "Etah",
    "type": "city",
    "lat": 27.63,
    "lng": 78.67,
    "pop": 145601
  },
  {
    "nameAr": "شيلونغ",
    "nameEn": "Shillong",
    "type": "city",
    "lat": 25.574444444444,
    "lng": 91.878888888889,
    "pop": 143229
  },
  {
    "nameAr": "مندسور",
    "nameEn": "Mandsaur",
    "type": "city",
    "lat": 24.03,
    "lng": 75.08,
    "pop": 141667
  },
  {
    "nameAr": "Hassan",
    "nameEn": "Hassan",
    "type": "city",
    "lat": 13.005,
    "lng": 76.102777777778,
    "pop": 133436
  },
  {
    "nameAr": "جونديا",
    "nameEn": "Gondia",
    "type": "city",
    "lat": 21.45,
    "lng": 80.2,
    "pop": 132821
  },
  {
    "nameAr": "North Barrackpore",
    "nameEn": "North Barrackpore",
    "type": "city",
    "lat": 22.77687,
    "lng": 88.34591,
    "pop": 132806
  },
  {
    "nameAr": "Mandya",
    "nameEn": "Mandya",
    "type": "city",
    "lat": 12.524166666667,
    "lng": 76.895833333333,
    "pop": 131211
  },
  {
    "nameAr": "بلكاد",
    "nameEn": "Palakkad",
    "type": "city",
    "lat": 10.779166666667,
    "lng": 76.654722222222,
    "pop": 130955
  },
  {
    "nameAr": "أنند",
    "nameEn": "Anand",
    "type": "city",
    "lat": 22.556,
    "lng": 72.951,
    "pop": 130462
  },
  {
    "nameAr": "Modinagar",
    "nameEn": "Modinagar",
    "type": "city",
    "lat": 28.911,
    "lng": 77.6348,
    "pop": 130325
  },
  {
    "nameAr": "Hanumangarh",
    "nameEn": "Hanumangarh",
    "type": "city",
    "lat": 29.583333333333,
    "lng": 74.316666666667,
    "pop": 129654
  },
  {
    "nameAr": "Kanchrapara",
    "nameEn": "Kanchrapara",
    "type": "city",
    "lat": 22.94563,
    "lng": 88.43322,
    "pop": 129576
  },
  {
    "nameAr": "Nabadwip",
    "nameEn": "Nabadwip",
    "type": "city",
    "lat": 23.408822222222,
    "lng": 88.365736111111,
    "pop": 125543
  },
  {
    "nameAr": "Patan",
    "nameEn": "Patan",
    "type": "city",
    "lat": 23.85,
    "lng": 72.116666666667,
    "pop": 125497
  },
  {
    "nameAr": "Basirhat",
    "nameEn": "Basirhat",
    "type": "city",
    "lat": 22.6611962,
    "lng": 88.8660215,
    "pop": 125254
  },
  {
    "nameAr": "Halisahar",
    "nameEn": "Halisahar",
    "type": "city",
    "lat": 22.95,
    "lng": 88.42,
    "pop": 124939
  },
  {
    "nameAr": "Rishra",
    "nameEn": "Rishra",
    "type": "city",
    "lat": 22.71,
    "lng": 88.35,
    "pop": 124577
  },
  {
    "nameAr": "Ashokenagar Kalyangarh",
    "nameEn": "Ashokenagar Kalyangarh",
    "type": "city",
    "lat": 22.833,
    "lng": 88.633,
    "pop": 121592
  },
  {
    "nameAr": "Baidyabati",
    "nameEn": "Baidyabati",
    "type": "city",
    "lat": 22.79,
    "lng": 88.32,
    "pop": 121110
  },
  {
    "nameAr": "Ghazipur",
    "nameEn": "Ghazipur",
    "type": "city",
    "lat": 25.583333333333,
    "lng": 83.566666666667,
    "pop": 121020
  },
  {
    "nameAr": "ساتارا",
    "nameEn": "Satara",
    "type": "city",
    "lat": 17.683333333333,
    "lng": 73.983333333333,
    "pop": 120079
  },
  {
    "nameAr": "Dabgram",
    "nameEn": "Dabgram",
    "type": "city",
    "lat": 26.6961,
    "lng": 88.4571,
    "pop": 119040
  },
  {
    "nameAr": "دارجيلنغ",
    "nameEn": "Darjeeling",
    "type": "city",
    "lat": 27.0375,
    "lng": 88.263055555556,
    "pop": 118805
  },
  {
    "nameAr": "سوبور",
    "nameEn": "Sopore",
    "type": "city",
    "lat": 34.286388888889,
    "lng": 74.462777777778,
    "pop": 118608
  },
  {
    "nameAr": "يافاتمال",
    "nameEn": "Yavatmal",
    "type": "city",
    "lat": 20.4,
    "lng": 78.133333333333,
    "pop": 116551
  },
  {
    "nameAr": "Titagarh",
    "nameEn": "Titagarh",
    "type": "city",
    "lat": 22.74,
    "lng": 88.37,
    "pop": 116541
  },
  {
    "nameAr": "شيتورغاره",
    "nameEn": "Chittorgarh",
    "type": "city",
    "lat": 24.889444444444,
    "lng": 74.623888888889,
    "pop": 116406
  },
  {
    "nameAr": "Dum Dum",
    "nameEn": "Dum Dum",
    "type": "city",
    "lat": 22.6370402,
    "lng": 88.4120527,
    "pop": 114786
  },
  {
    "nameAr": "عثمان آباد",
    "nameEn": "Dharashiv",
    "type": "city",
    "lat": 18.166666666667,
    "lng": 76.05,
    "pop": 112085
  },
  {
    "nameAr": "Champdani",
    "nameEn": "Champdani",
    "type": "city",
    "lat": 22.8,
    "lng": 88.37,
    "pop": 111251
  },
  {
    "nameAr": "Mancherial",
    "nameEn": "Mancherial",
    "type": "city",
    "lat": 18.872080555556,
    "lng": 79.447211111111,
    "pop": 110000
  },
  {
    "nameAr": "Bangaon",
    "nameEn": "Bangaon",
    "type": "city",
    "lat": 23.0434655,
    "lng": 88.8317765,
    "pop": 108864
  },
  {
    "nameAr": "Khardah",
    "nameEn": "Khardah",
    "type": "city",
    "lat": 22.72,
    "lng": 88.38,
    "pop": 108496
  },
  {
    "nameAr": "نويدا الكبرى",
    "nameEn": "Greater Noida",
    "type": "city",
    "lat": 28.496152777778,
    "lng": 77.536011111111,
    "pop": 107676
  },
  {
    "nameAr": "Jalpaiguri",
    "nameEn": "Jalpaiguri",
    "type": "city",
    "lat": 26.516666666667,
    "lng": 88.733333333333,
    "pop": 107341
  },
  {
    "nameAr": "Karaikudi",
    "nameEn": "Karaikudi",
    "type": "city",
    "lat": 10.06666667,
    "lng": 78.78333333,
    "pop": 106714
  },
  {
    "nameAr": "Neyveli",
    "nameEn": "Neyveli",
    "type": "city",
    "lat": 11.6,
    "lng": 79.48,
    "pop": 105687
  },
  {
    "nameAr": "Bansberia",
    "nameEn": "Bansberia",
    "type": "city",
    "lat": 22.97,
    "lng": 88.4,
    "pop": 103920
  },
  {
    "nameAr": "بوندي",
    "nameEn": "Bundi",
    "type": "city",
    "lat": 25.438333333333,
    "lng": 75.637222222222,
    "pop": 103286
  },
  {
    "nameAr": "Nagapattinam",
    "nameEn": "Nagapattinam",
    "type": "city",
    "lat": 10.766666666667,
    "lng": 79.833333333333,
    "pop": 102905
  },
  {
    "nameAr": "Bhadreswar",
    "nameEn": "Bhadreswar",
    "type": "city",
    "lat": 22.82,
    "lng": 88.35,
    "pop": 101477
  },
  {
    "nameAr": "بورت بلير",
    "nameEn": "Srivijayapuram",
    "type": "city",
    "lat": 11.666666666667,
    "lng": 92.75,
    "pop": 100608
  },
  {
    "nameAr": "Kalyani",
    "nameEn": "Kalyani",
    "type": "city",
    "lat": 22.975,
    "lng": 88.434444444444,
    "pop": 100575
  },
  {
    "nameAr": "تيزبور",
    "nameEn": "Tezpur",
    "type": "city",
    "lat": 26.62,
    "lng": 92.79,
    "pop": 100437
  },
  {
    "nameAr": "غانتوك",
    "nameEn": "Gangtok",
    "type": "city",
    "lat": 27.33,
    "lng": 88.62,
    "pop": 100286
  },
  {
    "nameAr": "تينسوكيا",
    "nameEn": "Tinsukia",
    "type": "city",
    "lat": 27.489166666667,
    "lng": 95.36,
    "pop": 99507
  },
  {
    "nameAr": "كوهيما",
    "nameEn": "Kohima",
    "type": "city",
    "lat": 25.666666666667,
    "lng": 94.119444444444,
    "pop": 99039
  },
  {
    "nameAr": "خمبهات",
    "nameEn": "Khambhat",
    "type": "city",
    "lat": 22.313114,
    "lng": 72.619408,
    "pop": 98700
  },
  {
    "nameAr": "Chakdaha",
    "nameEn": "Chakdaha",
    "type": "city",
    "lat": 23.08,
    "lng": 88.52,
    "pop": 95203
  },
  {
    "nameAr": "Dankuni",
    "nameEn": "Dankuni",
    "type": "city",
    "lat": 22.6854,
    "lng": 88.2922,
    "pop": 94936
  },
  {
    "nameAr": "Mormugao",
    "nameEn": "Mormugao",
    "type": "city",
    "lat": 15.402,
    "lng": 73.8,
    "pop": 94393
  },
  {
    "nameAr": "Kairana",
    "nameEn": "Kairana",
    "type": "city",
    "lat": 29.395277777778,
    "lng": 77.205277777778,
    "pop": 89000
  },
  {
    "nameAr": "أوتي (الهند)",
    "nameEn": "Ooty",
    "type": "city",
    "lat": 11.408611111111,
    "lng": 76.693888888889,
    "pop": 88430
  },
  {
    "nameAr": "Faridkot",
    "nameEn": "Faridkot",
    "type": "city",
    "lat": 30.67,
    "lng": 74.76,
    "pop": 87695
  },
  {
    "nameAr": "مارغاو",
    "nameEn": "Margao",
    "type": "city",
    "lat": 15.271944444444,
    "lng": 73.958333333333,
    "pop": 87650
  },
  {
    "nameAr": "شهدول",
    "nameEn": "Shahdol",
    "type": "city",
    "lat": 23.28,
    "lng": 81.35,
    "pop": 86681
  },
  {
    "nameAr": "مايلادوثوراي",
    "nameEn": "Mayiladuthurai",
    "type": "city",
    "lat": 11.101944444444,
    "lng": 79.65,
    "pop": 85632
  },
  {
    "nameAr": "Theni Allinagaram",
    "nameEn": "Theni Allinagaram",
    "type": "city",
    "lat": 10,
    "lng": 77.483333333333,
    "pop": 85424
  },
  {
    "nameAr": "Garulia",
    "nameEn": "Garulia",
    "type": "city",
    "lat": 22.82,
    "lng": 88.37,
    "pop": 85336
  },
  {
    "nameAr": "Old Malda",
    "nameEn": "Old Malda",
    "type": "city",
    "lat": 25.04,
    "lng": 88.14,
    "pop": 84012
  },
  {
    "nameAr": "مانسا",
    "nameEn": "Mansa",
    "type": "city",
    "lat": 29.9981879,
    "lng": 75.400922,
    "pop": 82956
  },
  {
    "nameAr": "Gumla",
    "nameEn": "Gumla",
    "type": "city",
    "lat": 23.044444444444,
    "lng": 84.541666666667,
    "pop": 80129
  },
  {
    "nameAr": "Kothagudem",
    "nameEn": "Kothagudem",
    "type": "city",
    "lat": 17.55,
    "lng": 80.63,
    "pop": 79819
  },
  {
    "nameAr": "داهود",
    "nameEn": "Dahod",
    "type": "city",
    "lat": 22.52,
    "lng": 74.15,
    "pop": 79185
  },
  {
    "nameAr": "Tanuku",
    "nameEn": "Tanuku",
    "type": "city",
    "lat": 16.75,
    "lng": 81.7,
    "pop": 77962
  },
  {
    "nameAr": "Konnagar",
    "nameEn": "Konnagar",
    "type": "city",
    "lat": 22.7,
    "lng": 88.35,
    "pop": 76172
  },
  {
    "nameAr": "Savarkundla",
    "nameEn": "Savarkundla",
    "type": "city",
    "lat": 21.34222,
    "lng": 71.30633,
    "pop": 73695
  },
  {
    "nameAr": "بارامولا",
    "nameEn": "Baramulla",
    "type": "city",
    "lat": 34.208888888889,
    "lng": 74.342777777778,
    "pop": 71434
  },
  {
    "nameAr": "Markapur",
    "nameEn": "Markapur",
    "type": "city",
    "lat": 15.735,
    "lng": 79.27,
    "pop": 71092
  },
  {
    "nameAr": "Malout",
    "nameEn": "Malout",
    "type": "city",
    "lat": 30.19,
    "lng": 74.499,
    "pop": 70958
  },
  {
    "nameAr": "Bapatla",
    "nameEn": "Bapatla",
    "type": "city",
    "lat": 15.905,
    "lng": 80.468,
    "pop": 70777
  },
  {
    "nameAr": "Palani",
    "nameEn": "Palani",
    "type": "city",
    "lat": 10.450369444444,
    "lng": 77.510427777778,
    "pop": 70467
  },
  {
    "nameAr": "Cumbum",
    "nameEn": "Cumbum",
    "type": "city",
    "lat": 9.73,
    "lng": 77.3,
    "pop": 68090
  },
  {
    "nameAr": "Bishnupur",
    "nameEn": "Bishnupur",
    "type": "city",
    "lat": 23.073888888889,
    "lng": 87.32,
    "pop": 67783
  },
  {
    "nameAr": "Siddipet",
    "nameEn": "Siddipet",
    "type": "city",
    "lat": 18.1,
    "lng": 78.85,
    "pop": 66737
  },
  {
    "nameAr": "Arambagh",
    "nameEn": "Arambagh",
    "type": "city",
    "lat": 22.88,
    "lng": 87.78,
    "pop": 66175
  },
  {
    "nameAr": "جيسلمير",
    "nameEn": "Jaisalmer",
    "type": "city",
    "lat": 26.916666666667,
    "lng": 70.916666666667,
    "pop": 65471
  },
  {
    "nameAr": "Tandur",
    "nameEn": "Tandur",
    "type": "city",
    "lat": 17.23,
    "lng": 77.58,
    "pop": 65115
  },
  {
    "nameAr": "Dharmapuri",
    "nameEn": "Dharmapuri",
    "type": "city",
    "lat": 12.127,
    "lng": 78.158,
    "pop": 64444
  },
  {
    "nameAr": "Nawalgarh",
    "nameEn": "Nawalgarh",
    "type": "city",
    "lat": 27.85,
    "lng": 75.27,
    "pop": 63948
  },
  {
    "nameAr": "Jatani",
    "nameEn": "Jatani",
    "type": "city",
    "lat": 20.17,
    "lng": 85.7,
    "pop": 63697
  },
  {
    "nameAr": "Washim",
    "nameEn": "Washim",
    "type": "city",
    "lat": 20.1,
    "lng": 77.15,
    "pop": 62863
  },
  {
    "nameAr": "Rupnagar",
    "nameEn": "Rupnagar",
    "type": "city",
    "lat": 30.966388888889,
    "lng": 76.533055555556,
    "pop": 61314
  },
  {
    "nameAr": "ايتاناجار",
    "nameEn": "Itanagar",
    "type": "city",
    "lat": 27.1,
    "lng": 93.62,
    "pop": 59490
  },
  {
    "nameAr": "Narasapuram",
    "nameEn": "Narasapuram",
    "type": "city",
    "lat": 16.433333333333,
    "lng": 81.683333333333,
    "pop": 58770
  },
  {
    "nameAr": "Macharla",
    "nameEn": "Macharla",
    "type": "city",
    "lat": 16.48,
    "lng": 79.43,
    "pop": 57290
  },
  {
    "nameAr": "كاندوكور",
    "nameEn": "Kandukur",
    "type": "city",
    "lat": 15.2165,
    "lng": 79.9042,
    "pop": 57246
  },
  {
    "nameAr": "كاريمجانج",
    "nameEn": "Sribhumi",
    "type": "city",
    "lat": 24.86666667,
    "lng": 92.36666667,
    "pop": 56854
  },
  {
    "nameAr": "Sattenapalli",
    "nameEn": "Sattenapalli",
    "type": "city",
    "lat": 16.396166666667,
    "lng": 80.149677777778,
    "pop": 56721
  },
  {
    "nameAr": "أيوديا",
    "nameEn": "Ayodhya",
    "type": "city",
    "lat": 26.799166666667,
    "lng": 82.204444444444,
    "pop": 55890
  },
  {
    "nameAr": "Rajpipla",
    "nameEn": "Rajpipla",
    "type": "city",
    "lat": 21.870369444444,
    "lng": 73.502569444444,
    "pop": 54923
  },
  {
    "nameAr": "Pithapuram",
    "nameEn": "Pithapuram",
    "type": "city",
    "lat": 17.1167,
    "lng": 82.2667,
    "pop": 54859
  },
  {
    "nameAr": "Tiruvallur",
    "nameEn": "Tiruvallur",
    "type": "city",
    "lat": 13.15,
    "lng": 79.916666666667,
    "pop": 54416
  },
  {
    "nameAr": "جالور",
    "nameEn": "Jalore",
    "type": "city",
    "lat": 25.35,
    "lng": 72.616666666667,
    "pop": 54081
  },
  {
    "nameAr": "Parvathipuram",
    "nameEn": "Parvathipuram",
    "type": "city",
    "lat": 18.783888888889,
    "lng": 83.425555555556,
    "pop": 53844
  },
  {
    "nameAr": "Dholka",
    "nameEn": "Dholka",
    "type": "city",
    "lat": 22.72,
    "lng": 72.47,
    "pop": 53792
  },
  {
    "nameAr": "Amalapuram",
    "nameEn": "Amalapuram",
    "type": "city",
    "lat": 16.5833,
    "lng": 82.0167,
    "pop": 53231
  },
  {
    "nameAr": "Vikarabad",
    "nameEn": "Vikarabad",
    "type": "city",
    "lat": 17.33,
    "lng": 77.9,
    "pop": 53143
  },
  {
    "nameAr": "Kasaragod",
    "nameEn": "Kasaragod",
    "type": "city",
    "lat": 12.501388888889,
    "lng": 74.99,
    "pop": 52683
  },
  {
    "nameAr": "Sihor",
    "nameEn": "Sihor",
    "type": "city",
    "lat": 21.7,
    "lng": 71.97,
    "pop": 52603
  },
  {
    "nameAr": "Diu",
    "nameEn": "Diu",
    "type": "city",
    "lat": 20.714997222222,
    "lng": 70.984358333333,
    "pop": 52074
  },
  {
    "nameAr": "كاثوا",
    "nameEn": "Kathua",
    "type": "city",
    "lat": 33.37,
    "lng": 75.52,
    "pop": 51991
  },
  {
    "nameAr": "Repalle",
    "nameEn": "Repalle",
    "type": "city",
    "lat": 16.02,
    "lng": 80.85,
    "pop": 50866
  },
  {
    "nameAr": "Saluru",
    "nameEn": "Saluru",
    "type": "city",
    "lat": 18.5333,
    "lng": 83.2167,
    "pop": 49500
  },
  {
    "nameAr": "Peddapuram",
    "nameEn": "Peddapuram",
    "type": "city",
    "lat": 17.08,
    "lng": 82.13,
    "pop": 49477
  },
  {
    "nameAr": "كاليمبونج",
    "nameEn": "Kalimpong",
    "type": "city",
    "lat": 27.06,
    "lng": 88.47,
    "pop": 49403
  },
  {
    "nameAr": "Jasdan",
    "nameEn": "Jasdan",
    "type": "city",
    "lat": 22.03,
    "lng": 71.2,
    "pop": 48483
  },
  {
    "nameAr": "Jammalamadugu",
    "nameEn": "Jammalamadugu",
    "type": "city",
    "lat": 14.85,
    "lng": 78.38,
    "pop": 46069
  },
  {
    "nameAr": "شارخي دادري",
    "nameEn": "Charkhi Dadri",
    "type": "city",
    "lat": 28.59,
    "lng": 76.27,
    "pop": 44892
  },
  {
    "nameAr": "راميشورم",
    "nameEn": "Rameswaram",
    "type": "city",
    "lat": 9.28,
    "lng": 79.3,
    "pop": 44856
  },
  {
    "nameAr": "Addanki",
    "nameEn": "Addanki",
    "type": "city",
    "lat": 15.811,
    "lng": 79.9738,
    "pop": 43850
  },
  {
    "nameAr": "Nidadavole",
    "nameEn": "Nidadavole",
    "type": "city",
    "lat": 16.92,
    "lng": 81.67,
    "pop": 43809
  },
  {
    "nameAr": "Chümoukedima",
    "nameEn": "Chümoukedima",
    "type": "city",
    "lat": 25.7916,
    "lng": 93.7818,
    "pop": 43516
  },
  {
    "nameAr": "Kurseong",
    "nameEn": "Kurseong",
    "type": "city",
    "lat": 26.88,
    "lng": 88.28,
    "pop": 42446
  },
  {
    "nameAr": "وركلا",
    "nameEn": "Varkala",
    "type": "city",
    "lat": 8.7330555555556,
    "lng": 76.716944444444,
    "pop": 42273
  },
  {
    "nameAr": "Akbarpur",
    "nameEn": "Akbarpur",
    "type": "city",
    "lat": 26.52,
    "lng": 82.62,
    "pop": 42248
  },
  {
    "nameAr": "راجغير",
    "nameEn": "Rajgir",
    "type": "city",
    "lat": 25.03,
    "lng": 85.42,
    "pop": 41587
  },
  {
    "nameAr": "راجوري",
    "nameEn": "Rajauri",
    "type": "city",
    "lat": 33.38,
    "lng": 74.3,
    "pop": 41552
  },
  {
    "nameAr": "Channarayapatna",
    "nameEn": "Channarayapatna",
    "type": "city",
    "lat": 12.9,
    "lng": 76.39,
    "pop": 40400
  },
  {
    "nameAr": "Maihar",
    "nameEn": "Maihar",
    "type": "city",
    "lat": 24.27,
    "lng": 80.75,
    "pop": 40192
  },
  {
    "nameAr": "Sivaganga",
    "nameEn": "Sivaganga",
    "type": "city",
    "lat": 9.8666666666667,
    "lng": 78.483333333333,
    "pop": 40129
  },
  {
    "nameAr": "بنجيم",
    "nameEn": "Panaji",
    "type": "city",
    "lat": 15.48,
    "lng": 73.83,
    "pop": 40017
  },
  {
    "nameAr": "Junnar",
    "nameEn": "Junnar",
    "type": "city",
    "lat": 19.2,
    "lng": 73.88,
    "pop": 40000
  },
  {
    "nameAr": "Amudalavalasa",
    "nameEn": "Amudalavalasa",
    "type": "city",
    "lat": 18.4167,
    "lng": 83.9,
    "pop": 39799
  },
  {
    "nameAr": "سولان",
    "nameEn": "Solan",
    "type": "city",
    "lat": 30.92,
    "lng": 77.12,
    "pop": 39256
  },
  {
    "nameAr": "Dwarka",
    "nameEn": "Dwarka",
    "type": "city",
    "lat": 22.240277777778,
    "lng": 68.968611111111,
    "pop": 38873
  },
  {
    "nameAr": "Pathanamthitta",
    "nameEn": "Pathanamthitta",
    "type": "city",
    "lat": 9.2647222222222,
    "lng": 76.787222222222,
    "pop": 37802
  },
  {
    "nameAr": "Dalkhola",
    "nameEn": "Dalkhola",
    "type": "city",
    "lat": 25.87577,
    "lng": 87.84009,
    "pop": 36930
  },
  {
    "nameAr": "ماهي",
    "nameEn": "Mahé",
    "type": "city",
    "lat": 11.701111111111,
    "lng": 75.536666666667,
    "pop": 36828
  },
  {
    "nameAr": "كوديكانال",
    "nameEn": "Kodaikanal",
    "type": "city",
    "lat": 10.233333333333,
    "lng": 77.483333333333,
    "pop": 36501
  },
  {
    "nameAr": "Sirohi",
    "nameEn": "Sirohi",
    "type": "city",
    "lat": 24.883333333333,
    "lng": 72.866666666667,
    "pop": 35531
  },
  {
    "nameAr": "أدهم بور",
    "nameEn": "Udhampur",
    "type": "city",
    "lat": 32.93,
    "lng": 75.13,
    "pop": 35507
  },
  {
    "nameAr": "Tiruvuru",
    "nameEn": "Tiruvuru",
    "type": "city",
    "lat": 17.1,
    "lng": 80.6,
    "pop": 34173
  },
  {
    "nameAr": "Almora",
    "nameEn": "Almora",
    "type": "city",
    "lat": 29.62,
    "lng": 79.67,
    "pop": 34122
  },
  {
    "nameAr": "Angamaly",
    "nameEn": "Angamaly",
    "type": "city",
    "lat": 10.2,
    "lng": 76.4,
    "pop": 33424
  },
  {
    "nameAr": "Umaria",
    "nameEn": "Umaria",
    "type": "city",
    "lat": 23.524722222222,
    "lng": 80.837222222222,
    "pop": 33114
  },
  {
    "nameAr": "فتحبور سيكري",
    "nameEn": "Fatehpur Sikri",
    "type": "city",
    "lat": 27.091111111111,
    "lng": 77.661111111111,
    "pop": 32905
  },
  {
    "nameAr": "لياه",
    "nameEn": "Leh",
    "type": "city",
    "lat": 34.164166666667,
    "lng": 77.584722222222,
    "pop": 30870
  },
  {
    "nameAr": "Uran",
    "nameEn": "Uran",
    "type": "city",
    "lat": 18.89,
    "lng": 72.95,
    "pop": 30439
  },
  {
    "nameAr": "Khunti",
    "nameEn": "Khunti",
    "type": "city",
    "lat": 23.014,
    "lng": 85.2724,
    "pop": 29271
  },
  {
    "nameAr": "Kotagiri",
    "nameEn": "Kotagiri",
    "type": "city",
    "lat": 11.41666667,
    "lng": 76.86666667,
    "pop": 28207
  },
  {
    "nameAr": "Vadnagar",
    "nameEn": "Vadnagar",
    "type": "city",
    "lat": 23.785,
    "lng": 72.64,
    "pop": 27790
  },
  {
    "nameAr": "بانديبوري",
    "nameEn": "Bandipore",
    "type": "city",
    "lat": 34.4225,
    "lng": 74.6375,
    "pop": 27482
  },
  {
    "nameAr": "Khedbrahma",
    "nameEn": "Khedbrahma",
    "type": "city",
    "lat": 24.0299,
    "lng": 73.04632,
    "pop": 25001
  },
  {
    "nameAr": "خاجوراهو",
    "nameEn": "Khajuraho",
    "type": "city",
    "lat": 24.85,
    "lng": 79.933333333333,
    "pop": 24481
  },
  {
    "nameAr": "كلكام",
    "nameEn": "Kulgam",
    "type": "city",
    "lat": 33.64,
    "lng": 75.02,
    "pop": 23584
  },
  {
    "nameAr": "Gauripur",
    "nameEn": "Gauripur",
    "type": "city",
    "lat": 26.08,
    "lng": 89.97,
    "pop": 23477
  },
  {
    "nameAr": "Curchorem",
    "nameEn": "Curchorem",
    "type": "city",
    "lat": 15.25,
    "lng": 74.1,
    "pop": 22730
  },
  {
    "nameAr": "Gingee",
    "nameEn": "Gingee",
    "type": "city",
    "lat": 12.25,
    "lng": 79.41666667,
    "pop": 22045
  },
  {
    "nameAr": "قاديان دارالأمان",
    "nameEn": "Qadian",
    "type": "city",
    "lat": 31.819166666667,
    "lng": 75.376388888889,
    "pop": 21899
  },
  {
    "nameAr": "بوشكار",
    "nameEn": "Pushkar",
    "type": "city",
    "lat": 26.490277777778,
    "lng": 74.554166666667,
    "pop": 21626
  },
  {
    "nameAr": "Mundra",
    "nameEn": "Mundra",
    "type": "city",
    "lat": 22.85,
    "lng": 69.73,
    "pop": 20338
  },
  {
    "nameAr": "Belur",
    "nameEn": "Belur",
    "type": "city",
    "lat": 13.164166666667,
    "lng": 75.864722222222,
    "pop": 20225
  },
  {
    "nameAr": "كنياكماري",
    "nameEn": "Kanniyakumari",
    "type": "city",
    "lat": 8.0911111111111,
    "lng": 77.541666666667,
    "pop": 19678
  },
  {
    "nameAr": "Marehra",
    "nameEn": "Marehra",
    "type": "city",
    "lat": 27.736666666667,
    "lng": 78.568888888889,
    "pop": 19542
  },
  {
    "nameAr": "بوخران",
    "nameEn": "Pokhran",
    "type": "city",
    "lat": 26.919444444444,
    "lng": 71.920833333333,
    "pop": 19186
  },
  {
    "nameAr": "دارامسالا",
    "nameEn": "Dharamshala",
    "type": "city",
    "lat": 32.215277777778,
    "lng": 76.318611111111,
    "pop": 19034
  },
  {
    "nameAr": "كولو",
    "nameEn": "Kullu",
    "type": "city",
    "lat": 31.96,
    "lng": 77.1,
    "pop": 18536
  },
  {
    "nameAr": "كوشينجار",
    "nameEn": "Kushinagar",
    "type": "city",
    "lat": 26.740277777778,
    "lng": 83.888888888889,
    "pop": 17982
  },
  {
    "nameAr": "Rajmahal",
    "nameEn": "Rajmahal",
    "type": "city",
    "lat": 25.05,
    "lng": 87.84,
    "pop": 17974
  },
  {
    "nameAr": "Manthani",
    "nameEn": "Manthani",
    "type": "city",
    "lat": 18.669722222222,
    "lng": 79.67675,
    "pop": 17927
  },
  {
    "nameAr": "Khed",
    "nameEn": "Khed",
    "type": "city",
    "lat": 17.718888888889,
    "lng": 73.396944444444,
    "pop": 16892
  },
  {
    "nameAr": "Ajaigarh",
    "nameEn": "Ajaigarh",
    "type": "city",
    "lat": 24.901491,
    "lng": 80.2584,
    "pop": 16656
  },
  {
    "nameAr": "شوبيان",
    "nameEn": "Shopian",
    "type": "city",
    "lat": 33.72,
    "lng": 74.83,
    "pop": 16360
  },
  {
    "nameAr": "Bunjwah",
    "nameEn": "Bunjwah",
    "type": "city",
    "lat": 33.1402258,
    "lng": 75.9360972,
    "pop": 15899
  },
  {
    "nameAr": "Mahabalipuram",
    "nameEn": "Mahabalipuram",
    "type": "city",
    "lat": 12.619722222222,
    "lng": 80.194444444444,
    "pop": 15172
  },
  {
    "nameAr": "كونارك",
    "nameEn": "Konark",
    "type": "city",
    "lat": 19.887822,
    "lng": 86.094785,
    "pop": 15015
  },
  {
    "nameAr": "تشيرابونجي",
    "nameEn": "Cherrapunji",
    "type": "city",
    "lat": 25.279166666667,
    "lng": 91.724166666667,
    "pop": 14816
  },
  {
    "nameAr": "Tezu",
    "nameEn": "Tezu",
    "type": "city",
    "lat": 27.916666666667,
    "lng": 96.166666666667,
    "pop": 14376
  },
  {
    "nameAr": "Koodankulam",
    "nameEn": "Koodankulam",
    "type": "city",
    "lat": 8.19027778,
    "lng": 77.7,
    "pop": 12957
  },
  {
    "nameAr": "Betma",
    "nameEn": "Betma",
    "type": "city",
    "lat": 22.68,
    "lng": 75.62,
    "pop": 12529
  },
  {
    "nameAr": "Canacona",
    "nameEn": "Canacona",
    "type": "city",
    "lat": 15.010928,
    "lng": 74.0363036,
    "pop": 12434
  },
  {
    "nameAr": "Namchi",
    "nameEn": "Namchi",
    "type": "city",
    "lat": 27.17,
    "lng": 88.35,
    "pop": 12190
  },
  {
    "nameAr": "Khemkaran",
    "nameEn": "Khemkaran",
    "type": "city",
    "lat": 31.16,
    "lng": 74.66,
    "pop": 11938
  },
  {
    "nameAr": "أورتشها",
    "nameEn": "Orchha",
    "type": "city",
    "lat": 25.35,
    "lng": 78.64,
    "pop": 11511
  },
  {
    "nameAr": "Naliya",
    "nameEn": "Naliya",
    "type": "city",
    "lat": 23.26111111,
    "lng": 68.82666667,
    "pop": 11415
  },
  {
    "nameAr": "Meghraj",
    "nameEn": "Meghraj",
    "type": "city",
    "lat": 23.5,
    "lng": 73.5,
    "pop": 11363
  },
  {
    "nameAr": "Painavu",
    "nameEn": "Painavu",
    "type": "city",
    "lat": 9.8494444444444,
    "lng": 76.943055555556,
    "pop": 11014
  },
  {
    "nameAr": "Akhnoor",
    "nameEn": "Akhnoor",
    "type": "city",
    "lat": 32.86667,
    "lng": 74.73333,
    "pop": 10770
  },
  {
    "nameAr": "Khambha",
    "nameEn": "Khambha",
    "type": "city",
    "lat": 21.1295327,
    "lng": 71.2160756,
    "pop": 10709
  },
  {
    "nameAr": "Rangpo",
    "nameEn": "Rangpo",
    "type": "city",
    "lat": 27.18,
    "lng": 88.53,
    "pop": 10450
  },
  {
    "nameAr": "Kilkunda",
    "nameEn": "Kilkunda",
    "type": "city",
    "lat": 11.256944444444,
    "lng": 76.669722222222,
    "pop": 10150
  },
  {
    "nameAr": "Thondamuthur",
    "nameEn": "Thondamuthur",
    "type": "city",
    "lat": 10.9899,
    "lng": 76.8409,
    "pop": 8386
  },
  {
    "nameAr": "Sidhmukh",
    "nameEn": "Sidhmukh",
    "type": "city",
    "lat": 28.95,
    "lng": 75.46,
    "pop": 7767
  },
  {
    "nameAr": "Chikhli",
    "nameEn": "Chikhli",
    "type": "city",
    "lat": 20.75,
    "lng": 73.07,
    "pop": 6953
  },
  {
    "nameAr": "Apra",
    "nameEn": "Apra",
    "type": "city",
    "lat": 31.08611111,
    "lng": 75.87555556,
    "pop": 6258
  },
  {
    "nameAr": "Uthiyur",
    "nameEn": "Uthiyur",
    "type": "city",
    "lat": 10.897222222222,
    "lng": 77.528333333333,
    "pop": 3500
  },
  {
    "nameAr": "Moparru",
    "nameEn": "Moparru",
    "type": "city",
    "lat": 16.10585,
    "lng": 80.62089,
    "pop": 3324
  },
  {
    "nameAr": "أوروفيل",
    "nameEn": "Auroville",
    "type": "city",
    "lat": 12.001793,
    "lng": 79.800943,
    "pop": 3288
  },
  {
    "nameAr": "Hampi",
    "nameEn": "Hampi",
    "type": "city",
    "lat": 15.335,
    "lng": 76.462,
    "pop": 2777
  },
  {
    "nameAr": "Pagra Bada",
    "nameEn": "Pagra Bada",
    "type": "city",
    "lat": 24.3523223,
    "lng": 80.0011211,
    "pop": 2470
  },
  {
    "nameAr": "Kaza",
    "nameEn": "Kaza",
    "type": "city",
    "lat": 32.225555555556,
    "lng": 78.071388888889,
    "pop": 1694
  },
  {
    "nameAr": "Barog",
    "nameEn": "Barog",
    "type": "city",
    "lat": 30.89,
    "lng": 77.082,
    "pop": 1500
  },
  {
    "nameAr": "Simharajupuram",
    "nameEn": "Simharajupuram",
    "type": "city",
    "lat": 13.19562,
    "lng": 79.42764,
    "pop": 982
  },
  {
    "nameAr": "Lingshet",
    "nameEn": "Lingshet",
    "type": "city",
    "lat": 33.9036,
    "lng": 76.82441,
    "pop": 913
  },
  {
    "nameAr": "Birmi Patta",
    "nameEn": "Birmi Patta",
    "type": "city",
    "lat": 28.853173,
    "lng": 75.199237,
    "pop": 751
  },
  {
    "nameAr": "Raghogarh",
    "nameEn": "Raghogarh",
    "type": "city",
    "lat": 24.442457623693,
    "lng": 77.197336038969,
    "pop": 398
  },
  {
    "nameAr": "Gue Village",
    "nameEn": "Gue Village",
    "type": "city",
    "lat": 32.132,
    "lng": 78.567,
    "pop": 132
  },
  {
    "nameAr": "آتنغل",
    "nameEn": "Attingal",
    "type": "city",
    "lat": 8.68,
    "lng": 76.83,
    "pop": null
  },
  {
    "nameAr": "آراه",
    "nameEn": "Arrah",
    "type": "city",
    "lat": 25.563055555556,
    "lng": 84.671111111111,
    "pop": null
  },
  {
    "nameAr": "آمبور",
    "nameEn": "Ambur",
    "type": "city",
    "lat": 12.78,
    "lng": 78.7,
    "pop": null
  },
  {
    "nameAr": "اراري",
    "nameEn": "Araria",
    "type": "city",
    "lat": 26.1346459,
    "lng": 87.4654062,
    "pop": null
  },
  {
    "nameAr": "أريلور",
    "nameEn": "Ariyalur",
    "type": "city",
    "lat": 11.133333333333,
    "lng": 79.083333333333,
    "pop": null
  },
  {
    "nameAr": "أعظم كره",
    "nameEn": "Azamgarh",
    "type": "city",
    "lat": 26.06,
    "lng": 83.19,
    "pop": null
  },
  {
    "nameAr": "ألانغ",
    "nameEn": "Alang",
    "type": "city",
    "lat": 21.3975,
    "lng": 72.1775,
    "pop": null
  },
  {
    "nameAr": "أمبالا",
    "nameEn": "Ambala",
    "type": "city",
    "lat": 30.378611111111,
    "lng": 76.7725,
    "pop": null
  },
  {
    "nameAr": "أمبيكابور",
    "nameEn": "Ambikapur",
    "type": "city",
    "lat": 23.12,
    "lng": 83.2,
    "pop": null
  },
  {
    "nameAr": "أمروها",
    "nameEn": "Amroha",
    "type": "city",
    "lat": 28.9044,
    "lng": 78.4675,
    "pop": null
  },
  {
    "nameAr": "أوناو",
    "nameEn": "Unnao",
    "type": "city",
    "lat": 26.55,
    "lng": 80.48,
    "pop": null
  },
  {
    "nameAr": "ايلايانغيدي",
    "nameEn": "Ilaiyangudi",
    "type": "city",
    "lat": 9.63,
    "lng": 78.63,
    "pop": null
  },
  {
    "nameAr": "بارابنكي",
    "nameEn": "Barabanki",
    "type": "city",
    "lat": 26.92,
    "lng": 81.2,
    "pop": null
  },
  {
    "nameAr": "بازهايانغادي",
    "nameEn": "Pazhayangadi",
    "type": "city",
    "lat": 12.016666666667,
    "lng": 75.259722222222,
    "pop": null
  },
  {
    "nameAr": "باغالاكوت",
    "nameEn": "Bagalkot",
    "type": "city",
    "lat": 16.183333333333,
    "lng": 75.7,
    "pop": null
  },
  {
    "nameAr": "بالاري",
    "nameEn": "Ballary",
    "type": "city",
    "lat": 15.15,
    "lng": 76.933333333333,
    "pop": null
  },
  {
    "nameAr": "بالانبور",
    "nameEn": "Palanpur",
    "type": "city",
    "lat": 24.166666666667,
    "lng": 72.433333333333,
    "pop": null
  },
  {
    "nameAr": "بانفل",
    "nameEn": "Panvel",
    "type": "city",
    "lat": 18.98,
    "lng": 73.1,
    "pop": null
  },
  {
    "nameAr": "باني بت",
    "nameEn": "Panipat",
    "type": "city",
    "lat": 29.3875,
    "lng": 76.97,
    "pop": null
  },
  {
    "nameAr": "باهرايتش",
    "nameEn": "Bahraich",
    "type": "city",
    "lat": 27.574166666667,
    "lng": 81.595833333333,
    "pop": null
  },
  {
    "nameAr": "بتن",
    "nameEn": "Pattan",
    "type": "city",
    "lat": 34.161111111111,
    "lng": 74.555555555556,
    "pop": null
  },
  {
    "nameAr": "بدايون",
    "nameEn": "Budaun",
    "type": "city",
    "lat": 28.05,
    "lng": 79.12,
    "pop": null
  },
  {
    "nameAr": "بدرواه",
    "nameEn": "Bhaderwah",
    "type": "city",
    "lat": 32.98,
    "lng": 75.72,
    "pop": null
  },
  {
    "nameAr": "برنالة",
    "nameEn": "Barnala",
    "type": "city",
    "lat": 30.37,
    "lng": 75.54,
    "pop": null
  },
  {
    "nameAr": "برهان بور",
    "nameEn": "Burhanpur",
    "type": "city",
    "lat": 21.3,
    "lng": 76.226667,
    "pop": null
  },
  {
    "nameAr": "بكوارة",
    "nameEn": "Phagwara",
    "type": "city",
    "lat": 31.13,
    "lng": 75.47,
    "pop": null
  },
  {
    "nameAr": "بلكات",
    "nameEn": "Pulicat",
    "type": "city",
    "lat": 13.41666667,
    "lng": 80.31666667,
    "pop": null
  },
  {
    "nameAr": "بلكرام",
    "nameEn": "Bilgram",
    "type": "city",
    "lat": 27.18,
    "lng": 80.03,
    "pop": null
  },
  {
    "nameAr": "بلندشهر",
    "nameEn": "Bulandshahr",
    "type": "city",
    "lat": 28.406944444444,
    "lng": 77.849722222222,
    "pop": null
  },
  {
    "nameAr": "بليا",
    "nameEn": "Ballia",
    "type": "city",
    "lat": 25.7625,
    "lng": 84.151944444444,
    "pop": null
  },
  {
    "nameAr": "بمبور",
    "nameEn": "Pampore",
    "type": "city",
    "lat": 34.02,
    "lng": 74.93,
    "pop": null
  },
  {
    "nameAr": "بهافا نجر",
    "nameEn": "Bhavnagar",
    "type": "city",
    "lat": 21.77445,
    "lng": 72.1525,
    "pop": null
  },
  {
    "nameAr": "بهلكام",
    "nameEn": "Pahalgam",
    "type": "city",
    "lat": 34.032222222222,
    "lng": 75.322222222222,
    "pop": null
  },
  {
    "nameAr": "بهوي",
    "nameEn": "Bhuj",
    "type": "city",
    "lat": 23.253888888889,
    "lng": 69.669166666667,
    "pop": null
  },
  {
    "nameAr": "بهيلوارة",
    "nameEn": "Bhilwara",
    "type": "city",
    "lat": 25.35,
    "lng": 74.633333333333,
    "pop": null
  },
  {
    "nameAr": "بودوتشيري",
    "nameEn": "Pondicherry",
    "type": "city",
    "lat": 11.93,
    "lng": 79.83,
    "pop": null
  },
  {
    "nameAr": "بوربندر",
    "nameEn": "Porbandar",
    "type": "city",
    "lat": 21.6425,
    "lng": 69.604722222222,
    "pop": null
  },
  {
    "nameAr": "بوناني",
    "nameEn": "Ponnani",
    "type": "city",
    "lat": 10.7678774,
    "lng": 75.9253017,
    "pop": null
  },
  {
    "nameAr": "بونش",
    "nameEn": "Poonch",
    "type": "city",
    "lat": 33.766666666667,
    "lng": 74.1,
    "pop": null
  },
  {
    "nameAr": "بيرمبالور",
    "nameEn": "Perambalur",
    "type": "city",
    "lat": 11.233333333333,
    "lng": 78.883333333333,
    "pop": null
  },
  {
    "nameAr": "بيليبت",
    "nameEn": "Pilibhit",
    "type": "city",
    "lat": 28.633333333333,
    "lng": 79.766666666667,
    "pop": null
  },
  {
    "nameAr": "تربا",
    "nameEn": "Tarbha",
    "type": "city",
    "lat": 20.43,
    "lng": 83.4,
    "pop": null
  },
  {
    "nameAr": "تريكاريبور",
    "nameEn": "Trikarpur",
    "type": "city",
    "lat": 12.216666666667,
    "lng": 75.25,
    "pop": null
  },
  {
    "nameAr": "تشانديري",
    "nameEn": "Chanderi",
    "type": "city",
    "lat": 24.72,
    "lng": 78.13,
    "pop": null
  },
  {
    "nameAr": "تشونار",
    "nameEn": "Chunar",
    "type": "city",
    "lat": 25.13,
    "lng": 82.9,
    "pop": null
  },
  {
    "nameAr": "تيروبور",
    "nameEn": "Tiruppur",
    "type": "city",
    "lat": 11.1075,
    "lng": 77.3398,
    "pop": null
  },
  {
    "nameAr": "جاغدالبور",
    "nameEn": "Jagdalpur",
    "type": "city",
    "lat": 19.07,
    "lng": 82.03,
    "pop": null
  },
  {
    "nameAr": "جالنا",
    "nameEn": "Jalna",
    "type": "city",
    "lat": 19.833333333333,
    "lng": 75.883333333333,
    "pop": null
  },
  {
    "nameAr": "جاوان (الهند)",
    "nameEn": "Gawan",
    "type": "city",
    "lat": 28.43,
    "lng": 78.35,
    "pop": null
  },
  {
    "nameAr": "جغادهري",
    "nameEn": "Jagadhri",
    "type": "city",
    "lat": 30.166666666667,
    "lng": 77.303055555556,
    "pop": null
  },
  {
    "nameAr": "جُندا",
    "nameEn": "Gonda",
    "type": "city",
    "lat": 27.133333333333,
    "lng": 81.933333333333,
    "pop": null
  },
  {
    "nameAr": "جودالور",
    "nameEn": "Gudalur",
    "type": "city",
    "lat": 11.5,
    "lng": 76.5,
    "pop": null
  },
  {
    "nameAr": "جولاغات",
    "nameEn": "Golaghat",
    "type": "city",
    "lat": 26.508961,
    "lng": 93.969543,
    "pop": null
  },
  {
    "nameAr": "جوهر",
    "nameEn": "Jawhar",
    "type": "city",
    "lat": 19.92,
    "lng": 73.23,
    "pop": null
  },
  {
    "nameAr": "جيهند",
    "nameEn": "Jind",
    "type": "city",
    "lat": 29.316111111111,
    "lng": 76.314166666667,
    "pop": null
  },
  {
    "nameAr": "حاجي بور",
    "nameEn": "Hajipur",
    "type": "city",
    "lat": 25.68,
    "lng": 85.22,
    "pop": null
  },
  {
    "nameAr": "حسين آباد، جھاركھند",
    "nameEn": "Hussainabad",
    "type": "city",
    "lat": 24.52849,
    "lng": 84,
    "pop": null
  },
  {
    "nameAr": "خاندوا",
    "nameEn": "Khandwa",
    "type": "city",
    "lat": 21.83,
    "lng": 76.33,
    "pop": null
  },
  {
    "nameAr": "خلد آباد",
    "nameEn": "Khuldabad",
    "type": "city",
    "lat": 20.00952222,
    "lng": 75.18879722,
    "pop": null
  },
  {
    "nameAr": "خوردا",
    "nameEn": "Khordha",
    "type": "city",
    "lat": 20.183333333333,
    "lng": 85.616666666667,
    "pop": null
  },
  {
    "nameAr": "خيدا",
    "nameEn": "Kheda",
    "type": "city",
    "lat": 22.75,
    "lng": 72.68,
    "pop": null
  },
  {
    "nameAr": "داربهانجا",
    "nameEn": "Darbhanga",
    "type": "city",
    "lat": 26.156999,
    "lng": 85.8995065,
    "pop": null
  },
  {
    "nameAr": "دامان",
    "nameEn": "Daman",
    "type": "city",
    "lat": 20.416938888889,
    "lng": 72.834022222222,
    "pop": null
  },
  {
    "nameAr": "دانباد",
    "nameEn": "Dhanbad",
    "type": "city",
    "lat": 23.79278,
    "lng": 86.435,
    "pop": null
  },
  {
    "nameAr": "دانتيوادا",
    "nameEn": "Dantewada",
    "type": "city",
    "lat": 18.9,
    "lng": 81.35,
    "pop": null
  },
  {
    "nameAr": "دراس",
    "nameEn": "Dras",
    "type": "city",
    "lat": 34.45,
    "lng": 75.77,
    "pop": null
  },
  {
    "nameAr": "دهرواد",
    "nameEn": "Dharwad",
    "type": "city",
    "lat": 15.458981,
    "lng": 75.00779,
    "pop": null
  },
  {
    "nameAr": "دوليرا",
    "nameEn": "Dholera",
    "type": "city",
    "lat": 22.248,
    "lng": 72.195,
    "pop": null
  },
  {
    "nameAr": "دومكا",
    "nameEn": "Dumka",
    "type": "city",
    "lat": 24.27,
    "lng": 87.25,
    "pop": null
  },
  {
    "nameAr": "دونجاربور",
    "nameEn": "Dungarpur",
    "type": "city",
    "lat": 23.843055555556,
    "lng": 73.714444444444,
    "pop": null
  },
  {
    "nameAr": "ديسبور",
    "nameEn": "Dispur",
    "type": "city",
    "lat": 26.15,
    "lng": 91.77,
    "pop": null
  },
  {
    "nameAr": "ديواس",
    "nameEn": "Dewas",
    "type": "city",
    "lat": 22.966666666667,
    "lng": 76.066666666667,
    "pop": null
  },
  {
    "nameAr": "ديوانهالي",
    "nameEn": "Devanahalli",
    "type": "city",
    "lat": 13.23,
    "lng": 77.7,
    "pop": null
  },
  {
    "nameAr": "ديول",
    "nameEn": "Dhule",
    "type": "city",
    "lat": 20.901388888889,
    "lng": 74.7775,
    "pop": null
  },
  {
    "nameAr": "ذوثوكدي",
    "nameEn": "Thoothukudi",
    "type": "city",
    "lat": 8.7833333333333,
    "lng": 78.133333333333,
    "pop": null
  },
  {
    "nameAr": "رامبور",
    "nameEn": "Rampur",
    "type": "city",
    "lat": 28.788,
    "lng": 79.019,
    "pop": null
  },
  {
    "nameAr": "رامتيك",
    "nameEn": "Ramtek, Maharashtra",
    "type": "city",
    "lat": 21.395,
    "lng": 79.327,
    "pop": null
  },
  {
    "nameAr": "رايجاره",
    "nameEn": "Raigarh",
    "type": "city",
    "lat": 21.9,
    "lng": 83.4,
    "pop": null
  },
  {
    "nameAr": "رواري",
    "nameEn": "Rewari",
    "type": "city",
    "lat": 28.183333333333,
    "lng": 76.616666666667,
    "pop": null
  },
  {
    "nameAr": "روحتاس",
    "nameEn": "Rohtas",
    "type": "city",
    "lat": 24.628059,
    "lng": 83.9199042,
    "pop": null
  },
  {
    "nameAr": "روركي",
    "nameEn": "Roorkee",
    "type": "city",
    "lat": 29.861388888889,
    "lng": 77.888888888889,
    "pop": null
  },
  {
    "nameAr": "روكيلا",
    "nameEn": "Rourkela",
    "type": "city",
    "lat": 22.249166666667,
    "lng": 84.882777777778,
    "pop": null
  },
  {
    "nameAr": "ريشيكيش",
    "nameEn": "Rishikesh",
    "type": "city",
    "lat": 30.1,
    "lng": 78.3,
    "pop": null
  },
  {
    "nameAr": "ريوا",
    "nameEn": "Rewa",
    "type": "city",
    "lat": 24.516666666667,
    "lng": 81.283333333333,
    "pop": null
  },
  {
    "nameAr": "سارندرنجر",
    "nameEn": "Surendranagar",
    "type": "city",
    "lat": 22.725,
    "lng": 71.633333333333,
    "pop": null
  },
  {
    "nameAr": "ساكر",
    "nameEn": "Sagar",
    "type": "city",
    "lat": 23.838888888889,
    "lng": 78.738611111111,
    "pop": null
  },
  {
    "nameAr": "ساماستيبور",
    "nameEn": "Samastipur",
    "type": "city",
    "lat": 25.85,
    "lng": 85.766666666667,
    "pop": null
  },
  {
    "nameAr": "سرهند",
    "nameEn": "Sirhind-Fategarh",
    "type": "city",
    "lat": 30.62511,
    "lng": 76.386002,
    "pop": null
  },
  {
    "nameAr": "سري جانجانجر",
    "nameEn": "Sri Ganganagar",
    "type": "city",
    "lat": 29.916666666667,
    "lng": 73.883333333333,
    "pop": null
  },
  {
    "nameAr": "سلطان بتيري",
    "nameEn": "Sultan Bathery",
    "type": "city",
    "lat": 11.67,
    "lng": 76.28,
    "pop": null
  },
  {
    "nameAr": "سنار",
    "nameEn": "Sinnar",
    "type": "city",
    "lat": 19.85,
    "lng": 74,
    "pop": null
  },
  {
    "nameAr": "سنكرور",
    "nameEn": "Sangrur",
    "type": "city",
    "lat": 30.233333333333,
    "lng": 75.833333333333,
    "pop": null
  },
  {
    "nameAr": "سونيبات",
    "nameEn": "Sonipat",
    "type": "city",
    "lat": 28.995833333333,
    "lng": 77.011388888889,
    "pop": null
  },
  {
    "nameAr": "سيبسجار",
    "nameEn": "Sivasagar",
    "type": "city",
    "lat": 26.98,
    "lng": 94.63,
    "pop": null
  },
  {
    "nameAr": "سيتابور",
    "nameEn": "Sitapur",
    "type": "city",
    "lat": 27.566666666667,
    "lng": 80.683333333333,
    "pop": null
  },
  {
    "nameAr": "سيتامارهى",
    "nameEn": "Sitamarhi",
    "type": "city",
    "lat": 26.6,
    "lng": 85.48,
    "pop": null
  },
  {
    "nameAr": "سيسارام",
    "nameEn": "Sasaram",
    "type": "city",
    "lat": 24.95,
    "lng": 84.03,
    "pop": null
  },
  {
    "nameAr": "سيفاكاسي",
    "nameEn": "Sivakasi",
    "type": "city",
    "lat": 9.45,
    "lng": 77.8,
    "pop": null
  },
  {
    "nameAr": "سيكار",
    "nameEn": "Sikar",
    "type": "city",
    "lat": 27.611944444444,
    "lng": 75.139722222222,
    "pop": null
  },
  {
    "nameAr": "سينجرولي",
    "nameEn": "Singrauli",
    "type": "city",
    "lat": 24.11,
    "lng": 82.39,
    "pop": null
  },
  {
    "nameAr": "شاندرابور",
    "nameEn": "Chandrapur",
    "type": "city",
    "lat": 19.95,
    "lng": 79.3,
    "pop": null
  },
  {
    "nameAr": "شيفبوري",
    "nameEn": "Shivpuri",
    "type": "city",
    "lat": 25.433333333333,
    "lng": 77.65,
    "pop": null
  },
  {
    "nameAr": "شيكماجالور",
    "nameEn": "Chikkamagaluru",
    "type": "city",
    "lat": 13.316666666667,
    "lng": 75.783333333333,
    "pop": null
  },
  {
    "nameAr": "غانديدام",
    "nameEn": "Gandhidham",
    "type": "city",
    "lat": 23.068055555556,
    "lng": 70.128333333333,
    "pop": null
  },
  {
    "nameAr": "غوغا",
    "nameEn": "Ghogha",
    "type": "city",
    "lat": 21.68,
    "lng": 72.28,
    "pop": null
  },
  {
    "nameAr": "غوكاك",
    "nameEn": "Gokak",
    "type": "city",
    "lat": 16.16901,
    "lng": 74.82393,
    "pop": null
  },
  {
    "nameAr": "فادجام",
    "nameEn": "Vadgam",
    "type": "city",
    "lat": 24.083333333333,
    "lng": 72.483333333333,
    "pop": null
  },
  {
    "nameAr": "فاسندا",
    "nameEn": "Vansda",
    "type": "city",
    "lat": 20.45,
    "lng": 73.22,
    "pop": null
  },
  {
    "nameAr": "فاغامون",
    "nameEn": "Vagamon",
    "type": "city",
    "lat": 9.6805555555556,
    "lng": 76.866666666667,
    "pop": null
  },
  {
    "nameAr": "فالباري",
    "nameEn": "Valparai",
    "type": "city",
    "lat": 10.37,
    "lng": 76.97,
    "pop": null
  },
  {
    "nameAr": "فالساد",
    "nameEn": "Valsad",
    "type": "city",
    "lat": 20.633333333333,
    "lng": 72.933333333333,
    "pop": null
  },
  {
    "nameAr": "فانثالي",
    "nameEn": "Vanthali",
    "type": "city",
    "lat": 21.4833,
    "lng": 70.3333,
    "pop": null
  },
  {
    "nameAr": "فاندافاسي",
    "nameEn": "Vandavasi",
    "type": "city",
    "lat": 12.5,
    "lng": 79.62,
    "pop": null
  },
  {
    "nameAr": "فاندالور",
    "nameEn": "Vandalur",
    "type": "city",
    "lat": 12.89,
    "lng": 80.08,
    "pop": null
  },
  {
    "nameAr": "فانيمبدي",
    "nameEn": "Vaniyambadi",
    "type": "city",
    "lat": 12.68,
    "lng": 78.62,
    "pop": null
  },
  {
    "nameAr": "فانيمبلم",
    "nameEn": "Vaniyambalam",
    "type": "city",
    "lat": 11.1833,
    "lng": 76.2583,
    "pop": null
  },
  {
    "nameAr": "فرروخاباد",
    "nameEn": "Farrukhabad",
    "type": "city",
    "lat": 27.391388888889,
    "lng": 79.579166666667,
    "pop": null
  },
  {
    "nameAr": "فيرار",
    "nameEn": "Virar",
    "type": "city",
    "lat": 19.47,
    "lng": 72.8,
    "pop": null
  },
  {
    "nameAr": "فيروز آباد، أتر برديش",
    "nameEn": "Firozabad",
    "type": "city",
    "lat": 27.15,
    "lng": 78.42,
    "pop": null
  },
  {
    "nameAr": "كابورتهالا",
    "nameEn": "Kapurthala",
    "type": "city",
    "lat": 31.38,
    "lng": 75.381111111111,
    "pop": null
  },
  {
    "nameAr": "كاتني",
    "nameEn": "Katni",
    "type": "city",
    "lat": 23.48,
    "lng": 80.12,
    "pop": null
  },
  {
    "nameAr": "كارغل",
    "nameEn": "Kargil",
    "type": "city",
    "lat": 34.5594,
    "lng": 76.1256,
    "pop": null
  },
  {
    "nameAr": "كانور",
    "nameEn": "Kannur",
    "type": "city",
    "lat": 11.868888888889,
    "lng": 75.355555555556,
    "pop": null
  },
  {
    "nameAr": "كايام كولام",
    "nameEn": "Kayamkulam",
    "type": "city",
    "lat": 9.17,
    "lng": 76.49,
    "pop": null
  },
  {
    "nameAr": "كرداس بور",
    "nameEn": "Gurdaspur",
    "type": "city",
    "lat": 32.0333,
    "lng": 75.4,
    "pop": null
  },
  {
    "nameAr": "كرور",
    "nameEn": "Karur",
    "type": "city",
    "lat": 10.96,
    "lng": 78.075,
    "pop": null
  },
  {
    "nameAr": "كنكن",
    "nameEn": "Kangan",
    "type": "city",
    "lat": 34.263055555556,
    "lng": 74.902777777778,
    "pop": null
  },
  {
    "nameAr": "كوبلفتي",
    "nameEn": "Kovilpatti",
    "type": "city",
    "lat": 9.17,
    "lng": 77.87,
    "pop": null
  },
  {
    "nameAr": "كوتايام",
    "nameEn": "Kottayam",
    "type": "city",
    "lat": 9.5916666666667,
    "lng": 76.522222222222,
    "pop": null
  },
  {
    "nameAr": "كوتدوار",
    "nameEn": "Kotdwar",
    "type": "city",
    "lat": 29.745277777778,
    "lng": 78.52,
    "pop": null
  },
  {
    "nameAr": "كودونغالور",
    "nameEn": "Kodungallur",
    "type": "city",
    "lat": 10.22,
    "lng": 76.22,
    "pop": null
  },
  {
    "nameAr": "كوربا",
    "nameEn": "Korba",
    "type": "city",
    "lat": 22.345833333333,
    "lng": 82.696388888889,
    "pop": null
  },
  {
    "nameAr": "كوروكشترا",
    "nameEn": "Kurukshetra",
    "type": "city",
    "lat": 29.970833333333,
    "lng": 76.85,
    "pop": null
  },
  {
    "nameAr": "كولهابور",
    "nameEn": "Kolhapur",
    "type": "city",
    "lat": 16.7,
    "lng": 74.233333333333,
    "pop": null
  },
  {
    "nameAr": "كومباكونام",
    "nameEn": "Kudanthaiyan",
    "type": "city",
    "lat": 10.966666666667,
    "lng": 79.383333333333,
    "pop": null
  },
  {
    "nameAr": "كونور",
    "nameEn": "Coonoor",
    "type": "city",
    "lat": 11.345,
    "lng": 76.795,
    "pop": null
  },
  {
    "nameAr": "كيتهال",
    "nameEn": "Kaithal",
    "type": "city",
    "lat": 29.801666666667,
    "lng": 76.396666666667,
    "pop": null
  },
  {
    "nameAr": "كيشنجاني",
    "nameEn": "Kishanganj",
    "type": "city",
    "lat": 26.079444444444,
    "lng": 87.937222222222,
    "pop": null
  },
  {
    "nameAr": "كيلاكاراي",
    "nameEn": "Kilakarai",
    "type": "city",
    "lat": 9.23135,
    "lng": 78.7844,
    "pop": null
  },
  {
    "nameAr": "لاتور",
    "nameEn": "Latur",
    "type": "city",
    "lat": 18.39721,
    "lng": 76.56784,
    "pop": null
  },
  {
    "nameAr": "ماكام",
    "nameEn": "Magam",
    "type": "city",
    "lat": 34.092777777778,
    "lng": 74.591388888889,
    "pop": null
  },
  {
    "nameAr": "مالابورام",
    "nameEn": "Malappuram",
    "type": "city",
    "lat": 11.041666666667,
    "lng": 76.079444444444,
    "pop": null
  },
  {
    "nameAr": "ماليغاؤن",
    "nameEn": "Malegaon",
    "type": "city",
    "lat": 20.549722222222,
    "lng": 74.534722222222,
    "pop": null
  },
  {
    "nameAr": "ماندفي",
    "nameEn": "Mandvi",
    "type": "city",
    "lat": 22.833890617166,
    "lng": 69.34958299176,
    "pop": null
  },
  {
    "nameAr": "مباركفور",
    "nameEn": "Mubarakpur",
    "type": "city",
    "lat": 26.09,
    "lng": 83.29,
    "pop": null
  },
  {
    "nameAr": "متشليشهر",
    "nameEn": "Machhlishahr",
    "type": "city",
    "lat": 25.68,
    "lng": 82.42,
    "pop": null
  },
  {
    "nameAr": "محمود آباد",
    "nameEn": "Mahmudabad",
    "type": "city",
    "lat": 27.3,
    "lng": 81.13333333,
    "pop": null
  },
  {
    "nameAr": "موتيهاري",
    "nameEn": "Motihari",
    "type": "city",
    "lat": 26.65,
    "lng": 84.916666666667,
    "pop": null
  },
  {
    "nameAr": "موربي",
    "nameEn": "Morbi",
    "type": "city",
    "lat": 22.816666666667,
    "lng": 70.833333333333,
    "pop": null
  },
  {
    "nameAr": "مونار",
    "nameEn": "Munnar",
    "type": "city",
    "lat": 10.089166666667,
    "lng": 77.059722222222,
    "pop": null
  },
  {
    "nameAr": "مونجر",
    "nameEn": "Munger",
    "type": "city",
    "lat": 25.381,
    "lng": 86.465,
    "pop": null
  },
  {
    "nameAr": "ميسور",
    "nameEn": "Mysore",
    "type": "city",
    "lat": 12.308611111111,
    "lng": 76.653055555556,
    "pop": null
  },
  {
    "nameAr": "مينبوري",
    "nameEn": "Mainpuri",
    "type": "city",
    "lat": 27.23,
    "lng": 79.02,
    "pop": null
  },
  {
    "nameAr": "ناغركويل",
    "nameEn": "Nagercoil",
    "type": "city",
    "lat": 8.1875,
    "lng": 77.429444444444,
    "pop": null
  },
  {
    "nameAr": "نانديد",
    "nameEn": "Nanded",
    "type": "city",
    "lat": 19.15,
    "lng": 77.333333333333,
    "pop": null
  },
  {
    "nameAr": "نانديد واغهالا",
    "nameEn": "Nanded-Waghala",
    "type": "city",
    "lat": 19.149722222222,
    "lng": 77.333055555556,
    "pop": null
  },
  {
    "nameAr": "نايا رايبور",
    "nameEn": "Atal Nagar-Nava Raipur",
    "type": "city",
    "lat": 21.161,
    "lng": 81.787,
    "pop": null
  },
  {
    "nameAr": "نفساري",
    "nameEn": "Navsari",
    "type": "city",
    "lat": 20.950555555556,
    "lng": 72.923055555556,
    "pop": null
  },
  {
    "nameAr": "نوكها",
    "nameEn": "Nokha",
    "type": "city",
    "lat": 27.6,
    "lng": 73.42,
    "pop": null
  },
  {
    "nameAr": "نيياتين كرا",
    "nameEn": "Neyyattinkara",
    "type": "city",
    "lat": 8.4,
    "lng": 77.08,
    "pop": null
  },
  {
    "nameAr": "هاريدوار",
    "nameEn": "Haridwar",
    "type": "city",
    "lat": 29.966666666667,
    "lng": 78.166666666667,
    "pop": null
  },
  {
    "nameAr": "هالدوانى",
    "nameEn": "Haldwani",
    "type": "city",
    "lat": 29.2144604,
    "lng": 79.527918,
    "pop": null
  },
  {
    "nameAr": "هردوي",
    "nameEn": "Hardoi",
    "type": "city",
    "lat": 27.3947,
    "lng": 80.1283,
    "pop": null
  },
  {
    "nameAr": "هزاري باغ",
    "nameEn": "Hazaribagh",
    "type": "city",
    "lat": 23.98,
    "lng": 85.35,
    "pop": null
  },
  {
    "nameAr": "هشيار بور",
    "nameEn": "Hoshiarpur",
    "type": "city",
    "lat": 31.532222222222,
    "lng": 75.917222222222,
    "pop": null
  },
  {
    "nameAr": "هوبلي",
    "nameEn": "Hubballi",
    "type": "city",
    "lat": 15.355,
    "lng": 75.136175,
    "pop": null
  },
  {
    "nameAr": "هيلاكاندي",
    "nameEn": "Hailakandi",
    "type": "city",
    "lat": 24.68,
    "lng": 92.57,
    "pop": null
  },
  {
    "nameAr": "يامونا نجر",
    "nameEn": "Yamunanagar",
    "type": "city",
    "lat": 30.128888888889,
    "lng": 77.280277777778,
    "pop": null
  },
  {
    "nameAr": "Aali",
    "nameEn": "Aali",
    "type": "city",
    "lat": 28.520277777778,
    "lng": 77.293611111111,
    "pop": null
  },
  {
    "nameAr": "Aamby Valley City",
    "nameEn": "Aamby Valley City",
    "type": "city",
    "lat": 18.60939,
    "lng": 73.38725,
    "pop": null
  },
  {
    "nameAr": "Abapura",
    "nameEn": "Abapura",
    "type": "city",
    "lat": 23.4383443,
    "lng": 74.5188207,
    "pop": null
  },
  {
    "nameAr": "Abohar",
    "nameEn": "Abohar",
    "type": "city",
    "lat": 30.1334,
    "lng": 74.2001,
    "pop": null
  },
  {
    "nameAr": "Adampur",
    "nameEn": "Adampur",
    "type": "city",
    "lat": 29.2832,
    "lng": 75.43,
    "pop": null
  },
  {
    "nameAr": "Adat",
    "nameEn": "Adat",
    "type": "city",
    "lat": 10.52,
    "lng": 76.06,
    "pop": null
  },
  {
    "nameAr": "Adbhar",
    "nameEn": "Adbhar",
    "type": "city",
    "lat": 21.951415,
    "lng": 83.02549,
    "pop": null
  },
  {
    "nameAr": "Adhartal",
    "nameEn": "Adhartal",
    "type": "city",
    "lat": 23.2,
    "lng": 79.95,
    "pop": null
  },
  {
    "nameAr": "Adipur",
    "nameEn": "Adipur",
    "type": "city",
    "lat": 23.073452777778,
    "lng": 70.090586111111,
    "pop": null
  },
  {
    "nameAr": "Adityapur",
    "nameEn": "Adityapur",
    "type": "city",
    "lat": 22.7808,
    "lng": 86.1522,
    "pop": null
  },
  {
    "nameAr": "Agar",
    "nameEn": "Agar",
    "type": "city",
    "lat": 23.71638889,
    "lng": 76.01638889,
    "pop": null
  },
  {
    "nameAr": "Agchia",
    "nameEn": "Agchia",
    "type": "city",
    "lat": 26.0005347,
    "lng": 91.2653402,
    "pop": null
  },
  {
    "nameAr": "Ahthibung",
    "nameEn": "Ahthibung",
    "type": "city",
    "lat": 25.493941,
    "lng": 93.609154,
    "pop": null
  },
  {
    "nameAr": "Ahwa",
    "nameEn": "Ahwa",
    "type": "city",
    "lat": 20.75,
    "lng": 73.683333333333,
    "pop": null
  },
  {
    "nameAr": "Aikkarappadi",
    "nameEn": "Aikkarappadi",
    "type": "city",
    "lat": 11.18638889,
    "lng": 75.90638889,
    "pop": null
  },
  {
    "nameAr": "Aishmuqam",
    "nameEn": "Aishmuqam",
    "type": "city",
    "lat": 33.863333333333,
    "lng": 75.281111111111,
    "pop": null
  },
  {
    "nameAr": "Aklera",
    "nameEn": "Aklera",
    "type": "city",
    "lat": 24.415833333333,
    "lng": 76.566666666667,
    "pop": null
  },
  {
    "nameAr": "Alakode",
    "nameEn": "Alakode",
    "type": "city",
    "lat": 12.18902,
    "lng": 75.46628,
    "pop": null
  },
  {
    "nameAr": "Alampady",
    "nameEn": "Alampady",
    "type": "city",
    "lat": 12.52444444,
    "lng": 75.02972222,
    "pop": null
  },
  {
    "nameAr": "Alampur",
    "nameEn": "Alampur",
    "type": "city",
    "lat": 15.87987,
    "lng": 78.13352,
    "pop": null
  },
  {
    "nameAr": "Algapur",
    "nameEn": "Algapur",
    "type": "city",
    "lat": 24.8668104,
    "lng": 92.6872046,
    "pop": null
  },
  {
    "nameAr": "Alipura",
    "nameEn": "Alipura",
    "type": "city",
    "lat": 25.17527778,
    "lng": 79.33555556,
    "pop": null
  },
  {
    "nameAr": "Aluva",
    "nameEn": "Aluva",
    "type": "city",
    "lat": 10.1167,
    "lng": 76.35,
    "pop": null
  },
  {
    "nameAr": "Amalsad",
    "nameEn": "Amalsad",
    "type": "city",
    "lat": 20.8139,
    "lng": 72.9553,
    "pop": null
  },
  {
    "nameAr": "Amarpur",
    "nameEn": "Amarpur",
    "type": "city",
    "lat": 23.53,
    "lng": 91.64,
    "pop": null
  },
  {
    "nameAr": "Amb",
    "nameEn": "Amb",
    "type": "city",
    "lat": 31.6798,
    "lng": 76.1175,
    "pop": null
  },
  {
    "nameAr": "Amber",
    "nameEn": "Amber",
    "type": "city",
    "lat": 26.983333333333,
    "lng": 75.866666666667,
    "pop": null
  },
  {
    "nameAr": "Ambernath",
    "nameEn": "Ambernath",
    "type": "city",
    "lat": 19.209,
    "lng": 73.186,
    "pop": null
  },
  {
    "nameAr": "Amirgadh",
    "nameEn": "Amirgadh",
    "type": "city",
    "lat": 24.405624,
    "lng": 72.642053,
    "pop": null
  },
  {
    "nameAr": "Amod",
    "nameEn": "Amod",
    "type": "city",
    "lat": 21.991,
    "lng": 72.871,
    "pop": null
  },
  {
    "nameAr": "Amreli",
    "nameEn": "Amreli",
    "type": "city",
    "lat": 21.616666666667,
    "lng": 71.233333333333,
    "pop": null
  },
  {
    "nameAr": "Amsin",
    "nameEn": "Amsin",
    "type": "city",
    "lat": 26.5733,
    "lng": 82.4357,
    "pop": null
  },
  {
    "nameAr": "Amtala, Murshidabad",
    "nameEn": "Amtala, Murshidabad",
    "type": "city",
    "lat": 23.9322,
    "lng": 88.4476,
    "pop": null
  },
  {
    "nameAr": "Anchal",
    "nameEn": "Anchal",
    "type": "city",
    "lat": 8.92916667,
    "lng": 76.91805556,
    "pop": null
  },
  {
    "nameAr": "Anchuthengu",
    "nameEn": "Anchuthengu",
    "type": "city",
    "lat": 8.4833,
    "lng": 76.9167,
    "pop": null
  },
  {
    "nameAr": "Andipatti",
    "nameEn": "Andipatti",
    "type": "city",
    "lat": 9.98,
    "lng": 77.608055555556,
    "pop": null
  },
  {
    "nameAr": "Angadipuram",
    "nameEn": "Angadipuram",
    "type": "city",
    "lat": 10.979811111111,
    "lng": 76.194122222222,
    "pop": null
  },
  {
    "nameAr": "Anjangaon",
    "nameEn": "Anjangaon",
    "type": "city",
    "lat": 21.16516,
    "lng": 77.3091,
    "pop": null
  },
  {
    "nameAr": "Anjar",
    "nameEn": "Anjar",
    "type": "city",
    "lat": 23.1125,
    "lng": 70.025,
    "pop": null
  },
  {
    "nameAr": "Anjugramam",
    "nameEn": "Anjugramam",
    "type": "city",
    "lat": 8.1183333333333,
    "lng": 77.530277777778,
    "pop": null
  },
  {
    "nameAr": "Anklav",
    "nameEn": "Anklav",
    "type": "city",
    "lat": 22.391269444444,
    "lng": 72.99455,
    "pop": null
  },
  {
    "nameAr": "Ankleshwar",
    "nameEn": "Ankleshwar",
    "type": "city",
    "lat": 21.6,
    "lng": 73,
    "pop": null
  },
  {
    "nameAr": "Anupshahr",
    "nameEn": "Anupshahr",
    "type": "city",
    "lat": 28.37,
    "lng": 78.27,
    "pop": null
  },
  {
    "nameAr": "Arambram",
    "nameEn": "Arambram",
    "type": "city",
    "lat": 11.33333333,
    "lng": 75.88333333,
    "pop": null
  },
  {
    "nameAr": "Aravakurichi",
    "nameEn": "Aravakurichi",
    "type": "city",
    "lat": 10.77,
    "lng": 77.92,
    "pop": null
  },
  {
    "nameAr": "Arcot",
    "nameEn": "Arcot",
    "type": "city",
    "lat": 12.9,
    "lng": 79.33333333,
    "pop": null
  },
  {
    "nameAr": "Arthuna",
    "nameEn": "Arthuna",
    "type": "city",
    "lat": 23.4981689,
    "lng": 74.0960995,
    "pop": null
  },
  {
    "nameAr": "Aruppukkottai",
    "nameEn": "Aruppukkottai",
    "type": "city",
    "lat": 9.51,
    "lng": 78.1,
    "pop": null
  },
  {
    "nameAr": "Ashoknagar",
    "nameEn": "Ashoknagar",
    "type": "city",
    "lat": 24.34,
    "lng": 77.43,
    "pop": null
  },
  {
    "nameAr": "Atarra",
    "nameEn": "Atarra",
    "type": "city",
    "lat": 25.28,
    "lng": 80.57,
    "pop": null
  },
  {
    "nameAr": "Athirampuzha",
    "nameEn": "Athirampuzha",
    "type": "city",
    "lat": 9.6594888888889,
    "lng": 76.526661111111,
    "pop": null
  },
  {
    "nameAr": "Athmalgola",
    "nameEn": "Athmalgola",
    "type": "city",
    "lat": 25.27,
    "lng": 85.4,
    "pop": null
  },
  {
    "nameAr": "Atru",
    "nameEn": "Atru",
    "type": "city",
    "lat": 24.86666667,
    "lng": 76.66666667,
    "pop": null
  },
  {
    "nameAr": "Attakulangara",
    "nameEn": "Attakulangara",
    "type": "city",
    "lat": 8.47444,
    "lng": 76.9475,
    "pop": null
  },
  {
    "nameAr": "Atul",
    "nameEn": "Atul",
    "type": "city",
    "lat": 20.52882,
    "lng": 72.94116,
    "pop": null
  },
  {
    "nameAr": "Aul",
    "nameEn": "Aul",
    "type": "city",
    "lat": 20.67,
    "lng": 86.64,
    "pop": null
  },
  {
    "nameAr": "Avadi",
    "nameEn": "Avadi",
    "type": "city",
    "lat": 13.12,
    "lng": 80.1,
    "pop": null
  },
  {
    "nameAr": "Awantipora",
    "nameEn": "Awantipora",
    "type": "city",
    "lat": 33.919722222222,
    "lng": 75.015277777778,
    "pop": null
  },
  {
    "nameAr": "Aya Nagar",
    "nameEn": "Aya Nagar",
    "type": "city",
    "lat": 28.470555555556,
    "lng": 77.126388888889,
    "pop": null
  },
  {
    "nameAr": "Ayodhya Cantt",
    "nameEn": "Ayodhya Cantt",
    "type": "city",
    "lat": 26.796444,
    "lng": 82.133665,
    "pop": null
  },
  {
    "nameAr": "Ayothiapattinam",
    "nameEn": "Ayothiapattinam",
    "type": "city",
    "lat": 11.658055555556,
    "lng": 78.243611111111,
    "pop": null
  },
  {
    "nameAr": "Ayyampettai",
    "nameEn": "Ayyampettai",
    "type": "city",
    "lat": 10.9,
    "lng": 79.18,
    "pop": null
  },
  {
    "nameAr": "Babra",
    "nameEn": "Babra",
    "type": "city",
    "lat": 21.8442,
    "lng": 71.3042,
    "pop": null
  },
  {
    "nameAr": "Bachhraon",
    "nameEn": "Bachhraon",
    "type": "city",
    "lat": 28.93,
    "lng": 78.22,
    "pop": null
  },
  {
    "nameAr": "Badagoan",
    "nameEn": "Badagoan",
    "type": "city",
    "lat": 23.733055555556,
    "lng": 76.306944444444,
    "pop": null
  },
  {
    "nameAr": "Badami",
    "nameEn": "Badami",
    "type": "city",
    "lat": 15.92027778,
    "lng": 75.68027778,
    "pop": null
  },
  {
    "nameAr": "Badausa, Uttar Pradesh",
    "nameEn": "Badausa, Uttar Pradesh",
    "type": "city",
    "lat": 25.25,
    "lng": 80.65,
    "pop": null
  },
  {
    "nameAr": "Badnor",
    "nameEn": "Badnor",
    "type": "city",
    "lat": 25.8355094,
    "lng": 74.2774701,
    "pop": null
  },
  {
    "nameAr": "Bagasara",
    "nameEn": "Bagasara",
    "type": "city",
    "lat": 21.483333333333,
    "lng": 70.95,
    "pop": null
  },
  {
    "nameAr": "Bagha Kusmar",
    "nameEn": "Bagha Kusmar",
    "type": "city",
    "lat": 26.44,
    "lng": 86.43,
    "pop": null
  },
  {
    "nameAr": "Bagor",
    "nameEn": "Bagor",
    "type": "city",
    "lat": 25.3575086,
    "lng": 74.3731085,
    "pop": null
  },
  {
    "nameAr": "Baindur",
    "nameEn": "Baindur",
    "type": "city",
    "lat": 13.866,
    "lng": 74.6333,
    "pop": null
  },
  {
    "nameAr": "Bairia",
    "nameEn": "Bairia",
    "type": "city",
    "lat": 25.75833333,
    "lng": 84.14888889,
    "pop": null
  },
  {
    "nameAr": "Balapur",
    "nameEn": "Balapur",
    "type": "city",
    "lat": 17.31018,
    "lng": 78.49969,
    "pop": null
  },
  {
    "nameAr": "Balasore",
    "nameEn": "Balasore",
    "type": "city",
    "lat": 21.503333333333,
    "lng": 86.925,
    "pop": null
  },
  {
    "nameAr": "Balel Pipariya",
    "nameEn": "Balel Pipariya",
    "type": "city",
    "lat": 21.7588,
    "lng": 71.1286,
    "pop": null
  },
  {
    "nameAr": "Balotra",
    "nameEn": "Balotra",
    "type": "city",
    "lat": 25.83,
    "lng": 72.23,
    "pop": null
  },
  {
    "nameAr": "Balrampur",
    "nameEn": "Balrampur",
    "type": "city",
    "lat": 27.4295126,
    "lng": 82.1854602,
    "pop": null
  },
  {
    "nameAr": "Balussery",
    "nameEn": "Balussery",
    "type": "city",
    "lat": 11.45,
    "lng": 75.83,
    "pop": null
  },
  {
    "nameAr": "Banarpur",
    "nameEn": "Banarpur",
    "type": "city",
    "lat": 26.47,
    "lng": 79.52,
    "pop": null
  },
  {
    "nameAr": "Bandadka",
    "nameEn": "Bandadka",
    "type": "city",
    "lat": 12.501472222222,
    "lng": 75.267583333333,
    "pop": null
  },
  {
    "nameAr": "Bandol seoni",
    "nameEn": "Bandol seoni",
    "type": "city",
    "lat": 22.23,
    "lng": 79.54,
    "pop": null
  },
  {
    "nameAr": "Bangana town",
    "nameEn": "Bangana town",
    "type": "city",
    "lat": 31.6138,
    "lng": 76.3579,
    "pop": null
  },
  {
    "nameAr": "Baragaon",
    "nameEn": "Baragaon",
    "type": "city",
    "lat": 25.4833,
    "lng": 78.7167,
    "pop": null
  },
  {
    "nameAr": "Baramati",
    "nameEn": "Baramati",
    "type": "city",
    "lat": 18.15,
    "lng": 74.58,
    "pop": null
  },
  {
    "nameAr": "Baran",
    "nameEn": "Baran",
    "type": "city",
    "lat": 25.1,
    "lng": 76.516666666667,
    "pop": null
  },
  {
    "nameAr": "Barapali",
    "nameEn": "Barapali",
    "type": "city",
    "lat": 21.2,
    "lng": 83.5833,
    "pop": null
  },
  {
    "nameAr": "Bardoli",
    "nameEn": "Bardoli",
    "type": "city",
    "lat": 21.12,
    "lng": 73.12,
    "pop": null
  },
  {
    "nameAr": "Bari",
    "nameEn": "Bari",
    "type": "city",
    "lat": 26.63,
    "lng": 77.62,
    "pop": null
  },
  {
    "nameAr": "Baripada",
    "nameEn": "Baripada",
    "type": "city",
    "lat": 21.935,
    "lng": 86.721388888889,
    "pop": null
  },
  {
    "nameAr": "Barli , Jodhpur",
    "nameEn": "Barli , Jodhpur",
    "type": "city",
    "lat": 26.313333333333,
    "lng": 72.933055555556,
    "pop": null
  },
  {
    "nameAr": "Barmer",
    "nameEn": "Barmer",
    "type": "city",
    "lat": 25.744444444444,
    "lng": 71.397222222222,
    "pop": null
  },
  {
    "nameAr": "Barnoti",
    "nameEn": "Barnoti",
    "type": "city",
    "lat": 32.43,
    "lng": 75.43,
    "pop": null
  },
  {
    "nameAr": "Barsar",
    "nameEn": "Barsar",
    "type": "city",
    "lat": 31.52638889,
    "lng": 76.4625,
    "pop": null
  },
  {
    "nameAr": "Barwala",
    "nameEn": "Barwala",
    "type": "city",
    "lat": 22.15,
    "lng": 71.9,
    "pop": null
  },
  {
    "nameAr": "Barwani",
    "nameEn": "Barwani",
    "type": "city",
    "lat": 22.03,
    "lng": 74.9,
    "pop": null
  },
  {
    "nameAr": "Basavakalyan",
    "nameEn": "Basavakalyan",
    "type": "city",
    "lat": 17.874444444444,
    "lng": 76.949722222222,
    "pop": null
  },
  {
    "nameAr": "Basrehar",
    "nameEn": "Basrehar",
    "type": "city",
    "lat": 26.85043,
    "lng": 79.09148,
    "pop": null
  },
  {
    "nameAr": "Bassi",
    "nameEn": "Bassi",
    "type": "city",
    "lat": 26.8315,
    "lng": 76.04856,
    "pop": null
  },
  {
    "nameAr": "Batlagundu",
    "nameEn": "Batlagundu",
    "type": "city",
    "lat": 10.1655,
    "lng": 77.7594,
    "pop": null
  },
  {
    "nameAr": "Bavla",
    "nameEn": "Bavla",
    "type": "city",
    "lat": 22.833511111111,
    "lng": 72.364288888889,
    "pop": null
  },
  {
    "nameAr": "Begur",
    "nameEn": "Begur",
    "type": "city",
    "lat": 12.872347222222,
    "lng": 77.632872222222,
    "pop": null
  },
  {
    "nameAr": "Behiang Village",
    "nameEn": "Behiang Village",
    "type": "city",
    "lat": 24.007071,
    "lng": 93.557675,
    "pop": null
  },
  {
    "nameAr": "Bekal",
    "nameEn": "Bekal",
    "type": "city",
    "lat": 12.396763888889,
    "lng": 75.032680555556,
    "pop": null
  },
  {
    "nameAr": "Belonia",
    "nameEn": "Belonia",
    "type": "city",
    "lat": 23.25,
    "lng": 91.458333333333,
    "pop": null
  },
  {
    "nameAr": "Benashol",
    "nameEn": "Benashol",
    "type": "city",
    "lat": 22.3571308,
    "lng": 86.759168,
    "pop": null
  },
  {
    "nameAr": "Betjhariya",
    "nameEn": "Betjhariya",
    "type": "city",
    "lat": 22.3949441,
    "lng": 86.7705188,
    "pop": null
  },
  {
    "nameAr": "Bettiah",
    "nameEn": "Bettiah",
    "type": "city",
    "lat": 26.802222222222,
    "lng": 84.498611111111,
    "pop": null
  },
  {
    "nameAr": "Bhaba Nagar",
    "nameEn": "Bhaba Nagar",
    "type": "city",
    "lat": 31.56527778,
    "lng": 77.93472222,
    "pop": null
  },
  {
    "nameAr": "Bhabhar",
    "nameEn": "Bhabhar",
    "type": "city",
    "lat": 24.0718371,
    "lng": 71.5892314,
    "pop": null
  },
  {
    "nameAr": "Bhachau",
    "nameEn": "Bhachau",
    "type": "city",
    "lat": 23.28,
    "lng": 70.35,
    "pop": null
  },
  {
    "nameAr": "Bhadarwa",
    "nameEn": "Bhadarwa",
    "type": "city",
    "lat": 22.258652,
    "lng": 71.1923805,
    "pop": null
  },
  {
    "nameAr": "Bhagwanpur",
    "nameEn": "Bhagwanpur",
    "type": "city",
    "lat": 29.9417,
    "lng": 77.8138,
    "pop": null
  },
  {
    "nameAr": "Bhagwanpur vaishali",
    "nameEn": "Bhagwanpur vaishali",
    "type": "city",
    "lat": 25.858,
    "lng": 85.296,
    "pop": null
  },
  {
    "nameAr": "Bhaiseena",
    "nameEn": "Bhaiseena",
    "type": "city",
    "lat": 27.03611111,
    "lng": 77.05277778,
    "pop": null
  },
  {
    "nameAr": "Bhalki",
    "nameEn": "Bhalki",
    "type": "city",
    "lat": 22.456277777778,
    "lng": 86.523861111111,
    "pop": null
  },
  {
    "nameAr": "Bhanvad",
    "nameEn": "Bhanvad",
    "type": "city",
    "lat": 21.93,
    "lng": 69.78,
    "pop": null
  },
  {
    "nameAr": "Bharmour",
    "nameEn": "Bharmour",
    "type": "city",
    "lat": 32.26,
    "lng": 76.32,
    "pop": null
  },
  {
    "nameAr": "Bhawanipatna",
    "nameEn": "Bhawanipatna",
    "type": "city",
    "lat": 19.9,
    "lng": 83.166666666667,
    "pop": null
  },
  {
    "nameAr": "Bhedaghat",
    "nameEn": "Bhedaghat",
    "type": "city",
    "lat": 23.13,
    "lng": 79.8,
    "pop": null
  },
  {
    "nameAr": "Bhilai Charoda",
    "nameEn": "Bhilai Charoda",
    "type": "city",
    "lat": 21.219788888889,
    "lng": 81.457511111111,
    "pop": null
  },
  {
    "nameAr": "Bhiloda",
    "nameEn": "Bhiloda",
    "type": "city",
    "lat": 23.46,
    "lng": 73.15,
    "pop": null
  },
  {
    "nameAr": "Bhitargaon",
    "nameEn": "Bhitargaon",
    "type": "city",
    "lat": 26.21055556,
    "lng": 80.27611111,
    "pop": null
  },
  {
    "nameAr": "Bhojpur, Madhya Pradesh",
    "nameEn": "Bhojpur, Madhya Pradesh",
    "type": "city",
    "lat": 23.115,
    "lng": 77.595277777778,
    "pop": null
  },
  {
    "nameAr": "Bhondsi",
    "nameEn": "Bhondsi",
    "type": "city",
    "lat": 28.3497,
    "lng": 77.0626,
    "pop": null
  },
  {
    "nameAr": "Bhongir",
    "nameEn": "Bhongir",
    "type": "city",
    "lat": 17.51,
    "lng": 78.89,
    "pop": null
  },
  {
    "nameAr": "Bhoranj",
    "nameEn": "Bhoranj",
    "type": "city",
    "lat": 31.644,
    "lng": 76.642,
    "pop": null
  },
  {
    "nameAr": "Bhutiya",
    "nameEn": "Bhutiya",
    "type": "city",
    "lat": 22.3377864,
    "lng": 86.7644305,
    "pop": null
  },
  {
    "nameAr": "Bijauli",
    "nameEn": "Bijauli",
    "type": "city",
    "lat": 26.6832496,
    "lng": 79.1520312,
    "pop": null
  },
  {
    "nameAr": "Bijnor",
    "nameEn": "Bijnor",
    "type": "city",
    "lat": 29.37,
    "lng": 78.13,
    "pop": null
  },
  {
    "nameAr": "Bilara",
    "nameEn": "Bilara",
    "type": "city",
    "lat": 26.1792,
    "lng": 73.7056,
    "pop": null
  },
  {
    "nameAr": "Bilimora",
    "nameEn": "Bilimora",
    "type": "city",
    "lat": 20.75,
    "lng": 72.95,
    "pop": null
  },
  {
    "nameAr": "Bilkhawthlir",
    "nameEn": "Bilkhawthlir",
    "type": "city",
    "lat": 24.34777778,
    "lng": 92.75944444,
    "pop": null
  },
  {
    "nameAr": "Bina-Etawa",
    "nameEn": "Bina-Etawa",
    "type": "city",
    "lat": 24.18,
    "lng": 78.2,
    "pop": null
  },
  {
    "nameAr": "Bishramganj",
    "nameEn": "Bishramganj",
    "type": "city",
    "lat": 23.85,
    "lng": 91.33,
    "pop": null
  },
  {
    "nameAr": "Biswan",
    "nameEn": "Biswan",
    "type": "city",
    "lat": 27.5,
    "lng": 81,
    "pop": null
  },
  {
    "nameAr": "Biswanath Chariali",
    "nameEn": "Biswanath Chariali",
    "type": "city",
    "lat": 26.727777777778,
    "lng": 93.151666666667,
    "pop": null
  },
  {
    "nameAr": "Bodeli",
    "nameEn": "Bodeli",
    "type": "city",
    "lat": 22.279138888889,
    "lng": 73.710361111111,
    "pop": null
  },
  {
    "nameAr": "Bodhgaya inscription of Mahanaman",
    "nameEn": "Bodhgaya inscription of Mahanaman",
    "type": "city",
    "lat": 24.695102,
    "lng": 84.991275,
    "pop": null
  },
  {
    "nameAr": "Bokaro Steel City",
    "nameEn": "Bokaro Steel City",
    "type": "city",
    "lat": 23.67,
    "lng": 86.15,
    "pop": null
  },
  {
    "nameAr": "Bollineni Hillside",
    "nameEn": "Bollineni Hillside",
    "type": "city",
    "lat": 12.88034,
    "lng": 80.20238,
    "pop": null
  },
  {
    "nameAr": "Bonaigarh",
    "nameEn": "Bonaigarh",
    "type": "city",
    "lat": 21.75,
    "lng": 84.97,
    "pop": null
  },
  {
    "nameAr": "Borawal",
    "nameEn": "Borawal",
    "type": "city",
    "lat": 29.995901,
    "lng": 75.543108,
    "pop": null
  },
  {
    "nameAr": "Bori",
    "nameEn": "Bori",
    "type": "city",
    "lat": 20.3482583,
    "lng": 77.8565346,
    "pop": null
  },
  {
    "nameAr": "Borunda",
    "nameEn": "Borunda",
    "type": "city",
    "lat": 26.284,
    "lng": 73.4818,
    "pop": null
  },
  {
    "nameAr": "Botad",
    "nameEn": "Botad",
    "type": "city",
    "lat": 22.17,
    "lng": 71.67,
    "pop": null
  },
  {
    "nameAr": "Boudh",
    "nameEn": "Boudh",
    "type": "city",
    "lat": 20.833333333333,
    "lng": 84.316666666667,
    "pop": null
  },
  {
    "nameAr": "Bramhapuri",
    "nameEn": "Bramhapuri",
    "type": "city",
    "lat": 20.36,
    "lng": 79.51,
    "pop": null
  },
  {
    "nameAr": "Bulakipur Luhanna",
    "nameEn": "Bulakipur Luhanna",
    "type": "city",
    "lat": 26.786497222222,
    "lng": 78.988883333333,
    "pop": null
  },