[
  {
    "nameAr": "إسطنبول",
    "nameEn": "Istanbul",
    "type": "city",
    "lat": 41.0082,
    "lng": 28.9784
  },
  {
    "nameAr": "أنقرة",
    "nameEn": "Ankara",
    "type": "city",
    "lat": 39.9334,
    "lng": 32.8597
  },
  {
    "nameAr": "إزمير",
    "nameEn": "Izmir",
    "type": "city",
    "lat": 38.4192,
    "lng": 27.1287
  },
  {
    "nameAr": "بورصة",
    "nameEn": "Bursa",
    "type": "city",
    "lat": 40.1885,
    "lng": 29.0610
  },
  {
    "nameAr": "قونيا",
    "nameEn": "Konya",
    "type": "city",
    "lat": 37.8746,
    "lng": 32.4932
  },
  {
    "nameAr": "أنطاليا",
    "nameEn": "Antalya",
    "type": "city",
    "lat": 36.8969,
    "lng": 30.7133
  },
  {
    "nameAr": "غازي عنتاب",
    "nameEn": "Gaziantep",
    "type": "city",
    "lat": 37.0662,
    "lng": 37.3833
  },
  {
    "nameAr": "أضنة",
    "nameEn": "Adana",
    "type": "city",
    "lat": 37.0000,
    "lng": 35.3213
  },
  {
    "nameAr": "شانلي أورفا",
    "nameEn": "Şanlıurfa",
    "type": "city",
    "lat": 37.1674,
    "lng": 38.7955
  }
]
